~VERSION INFORMATION
 VERS.                 2.0:   CWLS LOG ASCII STANDARD - VERSION 2.0
 WRAP.                  NO:   SINGLE LINE PER DEPTH STEP
 CREA.                 06/02/2020 16:06:00
#CREATED USING IP VERSION 4.5.2019.2902 BY RMOTA ON 06/02/2020 16:06:00
~WELL INFORMATION
#MNEM.UNIT       DATA                          DESCRIPTION MNEMONIC
#---------      ---------------------------   --------------------------
 STRT    .M         9.9250                    : START DEPTH
 STOP    .M         3087.0250                 : STOP DEPTH
 STEP    .M         0.1000                    : STEP VALUE
 NULL    .      -999.0000                     : NULL VALUE
 DATE    .      06/02/2020                    : LAS file Creation Date
 WELL   .      7-MP-22-BA       : Well Name
 COMP   .      PETROBRAS        : Company
 FLD    .      MASSAPE          : Field
 STATE  .      BAHIA            : State
 API    .      20240020649      : API Number
 UWI    .                       : Unique Well Identifier (UWI)
 LOC    .      SAD-69, MC=39G   : Location
 PDAT   .      NM               : Permanent Datum
 EPDAT  .      0                : Elevation of Permanent Datum
 LGMEA  .      MR               : Log Measured from
 DRMEA  .      MR               : Drill Measured From
 APDAT  .      66.39            : Elevation Above Permanent Datum
 KB     .      66.69            : KB Elevation
 DF     .      66.39            : DF Elevation
 GL     .      56.99            : GL Elevation
 RWS    .      -999             : Def_Rw
 WST    .      -999             : Def_Rwt
 PROV   .                       : Province
 SRVC   .                       : Contractor
 GDAT   .      WGS 84           : Geodatum
 LONG   .      -38.4321144443088: Longitude
 LATI   .      0                : Latitude
 COORDIN.                       : Grid System
 XCOORD .                       : X or East-West Coordinate
 YCOORD .                       : Y or North-South Coordinate
~CURVE INFORMATION
#MNEM              UNIT       API CODE   Curve Type Comments
#----------  --------------- ----------  ---------- -----------
 DEPTH      .M                         : Depth       
 BS         .in                        : BitSize     
 CALI       .in                        : Caliper     
 GR         .gAPI                      : GammaRay    
 HDRS       .ohm.m                     : DeepRes     
 RHOB       .g/cm3                     : Density     Loaded from DLIS: 7-mp-22-ba_raw-3.dlis
 NPHI       .m³/m³                     : Neutron     Loaded from DLIS: 7-mp-22-ba_raw-3.dlis
 DT         .uS/ft                     : Sonic       
 DRDN       .                          :             
 Lith_new   .                          :             
~A  DEPTH     BS       CALI       GR       HDRS      RHOB      NPHI       DT       DRDN    Lith_new 
# ...
 561.9250   12.2500   12.9963   34.6231   18.3072 -999.0000 -999.0000   96.9000 -999.0000 -999.0000 
 562.0250   12.2500   13.1190   53.8582   17.2653 -999.0000 -999.0000   97.5000 -999.0000 -999.0000 
 562.1250   12.2500   12.9963   69.2462   15.4488 -999.0000 -999.0000   96.8000 -999.0000 -999.0000 
 562.2250   12.2500   12.8736   76.9403   13.4295 -999.0000 -999.0000   96.6000 -999.0000 -999.0000 
 562.3250   12.2500   12.9963   69.2462   11.8387 -999.0000 -999.0000   98.8000 -999.0000 -999.0000 
 562.4250   12.2500   13.2417   40.3936   10.8684 -999.0000 -999.0000   98.9000 -999.0000 -999.0000 
 562.5250   12.2500   13.2417   69.2462   10.4647 -999.0000 -999.0000   98.8000 -999.0000 -999.0000 
 562.6250   12.2500   13.1190   92.3283   10.3952 -999.0000 -999.0000   98.0000 -999.0000 -999.0000 
 562.7250   12.2500   12.9963   57.7052   10.3981 -999.0000 -999.0000   99.4000 -999.0000 -999.0000 
 562.8250   12.2500   13.1190   63.4757   10.2011 -999.0000 -999.0000   99.8000 -999.0000 -999.0000 
 562.9250   12.2500   12.9963   80.7873    9.7566 -999.0000 -999.0000  101.1000 -999.0000 -999.0000 
 563.0250   12.2500   12.9963   92.3283    9.1841 -999.0000 -999.0000  102.3000 -999.0000 -999.0000 
 563.1250   12.2500   13.1190   65.3992    8.6906 -999.0000 -999.0000  103.0000 -999.0000 -999.0000 
 563.2250   12.2500   12.9963  109.6399    8.3433 -999.0000 -999.0000  104.6000 -999.0000 -999.0000 
 563.3250   12.2500   13.2417   95.2136    8.1112 -999.0000 -999.0000  105.7000 -999.0000 -999.0000 
 563.4250   12.2500   12.9963   77.9020    7.9194 -999.0000 -999.0000  105.1000 -999.0000 -999.0000 
 563.5250   12.2500   12.9963   72.1315    7.7681 -999.0000 -999.0000  104.6000 -999.0000 -999.0000 
 563.6250   12.2500   13.1190  106.7546    7.7361 -999.0000 -999.0000  105.3000 -999.0000 -999.0000 
 563.7250   12.2500   13.1190   60.5905    7.8910 -999.0000 -999.0000  103.0000 -999.0000 -999.0000 
 563.8250   12.2500   13.2417   88.4813    8.2295 -999.0000 -999.0000  102.1000 -999.0000 -999.0000 
 563.9250   12.2500   12.8736  109.6399    8.6077 -999.0000 -999.0000   98.9000 -999.0000 -999.0000 
 564.0250   12.2500   12.9963   92.3283    8.7990 -999.0000 -999.0000   99.7000 -999.0000 -999.0000 
 564.1250   12.2500   12.9963   63.4757    8.5859 -999.0000 -999.0000  100.9000 -999.0000 -999.0000 
 564.2250   12.2500   13.1190  100.0223    7.9769 -999.0000 -999.0000  102.6000 -999.0000 -999.0000 
 564.3250   12.2500   12.8736  103.8694    7.1767 -999.0000 -999.0000  104.8000 -999.0000 -999.0000 
 564.4250   12.2500   13.1190  115.4104    6.4234 -999.0000 -999.0000  109.5000 -999.0000 -999.0000 
 564.5250   12.2500   12.8736   53.8582    5.8133 -999.0000 -999.0000  111.7000 -999.0000 -999.0000 
 564.6250   12.2500   13.2417  121.1809    5.3480 -999.0000 -999.0000  115.1000 -999.0000 -999.0000 
 564.7250   12.2500   12.8736   76.9403    5.0002 -999.0000 -999.0000  114.7000 -999.0000 -999.0000 
 564.8250   12.2500   12.9963  106.7546    4.7720 -999.0000 -999.0000  115.4000 -999.0000 -999.0000 
 564.9250   12.2500   13.1190   92.3283    4.6738 -999.0000 -999.0000  115.9000 -999.0000 -999.0000 
 565.0250   12.2500   13.1190   83.6725    4.7019 -999.0000 -999.0000  115.4000 -999.0000 -999.0000 
 565.1250   12.2500   13.1190   69.2462    4.8175 -999.0000 -999.0000  113.9000 -999.0000 -999.0000 
 565.2250   12.2500   12.8736  106.7546    4.9559 -999.0000 -999.0000  113.4000 -999.0000 -999.0000 
 565.3250   12.2500   12.9963   77.9020    5.0401 -999.0000 -999.0000  112.7000 -999.0000 -999.0000 
 565.4250   12.2500   12.8736  115.4104    5.0178 -999.0000 -999.0000  112.7000 -999.0000 -999.0000 
 565.5250   12.2500   12.9963   92.3283    4.8904 -999.0000 -999.0000  114.3000 -999.0000 -999.0000 
 565.6250   12.2500   12.9963  111.5634    4.7087 -999.0000 -999.0000  115.2000 -999.0000 -999.0000 
 565.7250   12.2500   12.9963   84.6343    4.5464 -999.0000 -999.0000  116.1000 -999.0000 -999.0000 
 565.8250   12.2500   13.1190   69.2462    4.4717 -999.0000 -999.0000  115.7000 -999.0000 -999.0000 
 565.9250   12.2500   12.8736   61.5522    4.5345 -999.0000 -999.0000  113.7000 -999.0000 -999.0000 
 566.0250   12.2500   12.9963   69.2462    4.7618 -999.0000 -999.0000  110.5000 -999.0000 -999.0000 
 566.1250   12.2500   13.2417  119.2574    5.1554 -999.0000 -999.0000  110.0000 -999.0000 -999.0000 
 566.2250   12.2500   13.2417   92.3283    5.6780 -999.0000 -999.0000  107.6000 -999.0000 -999.0000 
 566.3250   12.2500   12.9963   92.3283    6.2577 -999.0000 -999.0000  104.6000 -999.0000 -999.0000 
 566.4250   12.2500   13.2417   88.4813    6.8195 -999.0000 -999.0000  103.4000 -999.0000 -999.0000 
 566.5250   12.2500   12.7509   53.8582    7.2891 -999.0000 -999.0000  102.5000 -999.0000 -999.0000 
 566.6250   12.2500   12.9963   73.0933    7.5823 -999.0000 -999.0000  103.3000 -999.0000 -999.0000 
 566.7250   12.2500   13.1190   69.2462    7.6081 -999.0000 -999.0000  102.8000 -999.0000 -999.0000 
 566.8250   12.2500   12.7509   86.5578    7.3116 -999.0000 -999.0000  104.3000 -999.0000 -999.0000 
 566.9250   12.2500   13.1190   99.2529    6.7471 -999.0000 -999.0000  108.0000 -999.0000 -999.0000 
 567.0250   12.2500   13.1190   87.7119    6.0429 -999.0000 -999.0000  111.9000 -999.0000 -999.0000 
 567.1250   12.2500   12.9963  106.7546    5.3499 -999.0000 -999.0000  113.9000 -999.0000 -999.0000 
 567.2250   12.2500   12.9963   69.2462    4.7803 -999.0000 -999.0000  119.2000 -999.0000 -999.0000 
 567.3250   12.2500   13.1190   72.1315    4.4047 -999.0000 -999.0000  118.9000 -999.0000 -999.0000 
 567.4250   12.2500   12.9963  103.8694    4.2671 -999.0000 -999.0000  119.1000 -999.0000 -999.0000 
 567.5250   12.2500   12.8736   84.6343    4.4014 -999.0000 -999.0000  117.5000 -999.0000 -999.0000 
 567.6250   12.2500   12.9963   73.0933    4.8234 -999.0000 -999.0000  113.6000 -999.0000 -999.0000 
 567.7250   12.2500   13.2417   92.3283    5.5039 -999.0000 -999.0000  111.3000 -999.0000 -999.0000 
 567.8250   12.2500   12.7509   86.5578    6.3094 -999.0000 -999.0000  106.4000 -999.0000 -999.0000 
 567.9250   12.2500   12.8736   80.7873    6.9719 -999.0000 -999.0000  105.1000 -999.0000 -999.0000 
 568.0250   12.2500   12.8736   88.4813    7.1891 -999.0000 -999.0000  107.0000 -999.0000 -999.0000 
 568.1250   12.2500   12.8736   96.1753    6.8421 -999.0000 -999.0000  110.0000 -999.0000 -999.0000 
 568.2250   12.2500   12.9963   80.7873    6.0859 -999.0000 -999.0000  116.1000 -999.0000 -999.0000 
 568.3250   12.2500   12.7509   84.6343    5.2164 -999.0000 -999.0000  118.1000 -999.0000 -999.0000 
 568.4250   12.2500   12.8736  103.8694    4.4602 -999.0000 -999.0000  122.0000 -999.0000 -999.0000 
 568.5250   12.2500   12.7509  100.9841    3.9042 -999.0000 -999.0000  122.7000 -999.0000 -999.0000 
 568.6250   12.2500   12.8736   69.2462    3.5154 -999.0000 -999.0000  125.9000 -999.0000 -999.0000 
 568.7250   12.2500   12.9963   92.3283    3.2260 -999.0000 -999.0000  127.0000 -999.0000 -999.0000 
 568.8250   12.2500   12.8736   86.5578    2.9803 -999.0000 -999.0000  126.0000 -999.0000 -999.0000 
 568.9250   12.2500   12.8736   86.5578    2.7658 -999.0000 -999.0000  127.3000 -999.0000 -999.0000 
 569.0250   12.2500   12.8736   61.5522    2.5966 -999.0000 -999.0000  129.2000 -999.0000 -999.0000 
 569.1250   12.2500   12.7509   77.9020    2.4833 -999.0000 -999.0000  130.5000 -999.0000 -999.0000 
 569.2250   12.2500   12.9963   80.7873    2.4221 -999.0000 -999.0000  131.5000 -999.0000 -999.0000 
 569.3250   12.2500   12.7509   69.2462    2.4014 -999.0000 -999.0000  131.6000 -999.0000 -999.0000 
 569.4250   12.2500   12.8736   86.5578    2.4099 -999.0000 -999.0000  132.2000 -999.0000 -999.0000 
 569.5250   12.2500   12.9963   51.9347    2.4436 -999.0000 -999.0000  132.9000 -999.0000 -999.0000 
 569.6250   12.2500   12.7509  111.5634    2.4976 -999.0000 -999.0000  132.9000 -999.0000 -999.0000 
 569.7250   12.2500   12.7509   92.3283    2.5614 -999.0000 -999.0000  132.5000 -999.0000 -999.0000 
 569.8250   12.2500   12.8736   76.9403    2.6260 -999.0000 -999.0000  131.7000 -999.0000 -999.0000 
