~VERSION INFORMATION
 VERS.                 2.0:   CWLS LOG ASCII STANDARD - VERSION 2.0
 WRAP.                  NO:   SINGLE LINE PER DEPTH STEP
 CREA.                 06/02/2020 16:06:00
#CREATED USING IP VERSION 4.5.2019.2902 BY RMOTA ON 06/02/2020 16:06:00
~WELL INFORMATION
#MNEM.UNIT       DATA                          DESCRIPTION MNEMONIC
#---------      ---------------------------   --------------------------
 STRT    .M         9.9250                    : START DEPTH
 STOP    .M         3087.0250                 : STOP DEPTH
 STEP    .M         0.1000                    : STEP VALUE
 NULL    .      -999.0000                     : NULL VALUE
 DATE    .      06/02/2020                    : LAS file Creation Date
 WELL   .      7-MP-22-BA       : Well Name
 COMP   .      PETROBRAS        : Company
 FLD    .      MASSAPE          : Field
 STATE  .      BAHIA            : State
 API    .      20240020649      : API Number
 UWI    .                       : Unique Well Identifier (UWI)
 LOC    .      SAD-69, MC=39G   : Location
 PDAT   .      NM               : Permanent Datum
 EPDAT  .      0                : Elevation of Permanent Datum
 LGMEA  .      MR               : Log Measured from
 DRMEA  .      MR               : Drill Measured From
 APDAT  .      66.39            : Elevation Above Permanent Datum
 KB     .      66.69            : KB Elevation
 DF     .      66.39            : DF Elevation
 GL     .      56.99            : GL Elevation
 RWS    .      -999             : Def_Rw
 WST    .      -999             : Def_Rwt
 PROV   .                       : Province
 SRVC   .                       : Contractor
 GDAT   .      WGS 84           : Geodatum
 LONG   .      -38.4321144443088: Longitude
 LATI   .      0                : Latitude
 COORDIN.                       : Grid System
 XCOORD .                       : X or East-West Coordinate
 YCOORD .                       : Y or North-South Coordinate
~CURVE INFORMATION
#MNEM              UNIT       API CODE   Curve Type Comments
#----------  --------------- ----------  ---------- -----------
 DEPTH      .M                         : Depth       
 BS         .in                        : BitSize     
 CALI       .in                        : Caliper     
 GR         .gAPI                      : GammaRay    
 HDRS       .ohm.m                     : DeepRes     
 RHOB       .g/cm3                     : Density     Loaded from DLIS: 7-mp-22-ba_raw-3.dlis
 NPHI       .m³/m³                     : Neutron     Loaded from DLIS: 7-mp-22-ba_raw-3.dlis
 DT         .uS/ft                     : Sonic       
 DRDN       .                          :             
 Lith_new   .                          :             
~A  DEPTH     BS       CALI       GR       HDRS      RHOB      NPHI       DT       DRDN    Lith_new 
# ...
2361.9250    8.5000    8.8990   93.5254    2.4477    2.5638    0.2486   90.6225    4.5623   57.0000 
2362.0250    8.5000    8.8990   94.5644    2.5256    2.5781    0.2448   89.4480    4.7231   57.0000 
2362.1250    8.5000    8.9072   94.3883    2.5855    2.5890    0.2395   88.8469    4.7636   57.0000 
2362.2250    8.5000    8.9235   93.1472    2.5875    2.5959    0.2356   89.0071    4.7716   57.0000 
2362.3250    8.5000    8.9317   91.1410    2.5078    2.5876    0.2342   89.9194    4.5590   57.0000 
2362.4250    8.5000    8.9235   89.0533    2.3581    2.5829    0.2371   91.3934    4.5621   57.0000 
2362.5250    8.5000    8.9153   88.1777    2.1792    2.5779    0.2404   93.1735    4.5692   57.0000 
2362.6250    8.5000    8.9317   89.2405    2.0131    2.5733    0.2432   94.8464    4.5714   57.0000 
2362.7250    8.5000    8.9399   91.3864    1.8851    2.5639    0.2444   96.0449    4.4243   57.0000 
2362.8250    8.5000    8.9644   93.4091    1.8032    2.5578    0.2457   96.6408    4.3468   57.0000 
2362.9250    8.5000    8.9562   95.1017    1.7625    2.5608    0.2479   96.9577    4.4786   57.0000 
2363.0250    8.5000    8.9644   95.7631    1.7529    2.5667    0.2488   98.7862    4.6283   57.0000 
2363.1250    8.5000    8.9399   96.1670    1.7635    2.5655    0.2491  101.2536    4.6140   57.0000 
2363.2250    8.5000    8.9562   96.9913    1.7848    2.5575    0.2469  103.8026    4.3799   57.0000 
2363.3250    8.5000    8.9644   98.3970    1.8087    2.5476    0.2452  104.0071    4.1260   57.0000 
2363.4250    8.5000    8.9562  100.5056    1.8301    2.5479    0.2432  101.1587    4.0625   57.0000 
2363.5250    8.5000    8.9317  102.2316    1.8480    2.5516    0.2430   98.9015    4.1312   57.0000 
2363.6250    8.5000    8.9562  103.1748    1.8667    2.5576    0.2406   98.4878    4.1723   57.0000 
2363.7250    8.5000    8.9644  102.8295    1.8960    2.5575    0.2387  100.8020    4.1066   57.0000 
2363.8250    8.5000    8.9808  101.1048    1.9476    2.5584    0.2346  102.5582    3.9898   57.0000 
2363.9250    8.5000    8.9971   99.2966    2.0268    2.5629    0.2328  101.8944    4.0192   57.0000 
2364.0250    8.5000    8.9644   97.9173    2.1295    2.5754    0.2302   97.9964    4.1818   57.0000 
2364.1250    8.5000    8.9808   96.6916    2.2425    2.5877    0.2275   93.6515    4.3382   57.0000 
2364.2250    8.5000    8.9890   95.6342    2.3460    2.5960    0.2242   90.5015    4.3909   57.0000 
2364.3250    8.5000    8.9808   94.5532    2.4218    2.5913    0.2221   89.1209    4.2285   57.0000 
2364.4250    8.5000    8.9726   92.9769    2.4625    2.5850    0.2235   89.0750    4.1515   57.0000 
2364.5250    8.5000    8.9726   92.4220    2.4690    2.5750    0.2274   89.1719    4.0805   57.0000 
2364.6250    8.5000    8.9808   92.8338    2.4488    2.5718    0.2332   89.3725    4.2104   57.0000 
2364.7250    8.5000    8.9890   93.1189    2.4116    2.5712    0.2376   89.6184    4.3431   57.0000 
2364.8250    8.5000    8.9808   94.0916    2.3790    2.5782    0.2399   89.7398    4.5621   57.0000 
2364.9250    8.5000    8.9808   94.2992    2.3690    2.5821    0.2386   89.6827    4.5941   57.0000 
2365.0250    8.5000    8.9726   94.0564    2.3879    2.5826    0.2353   89.4867    4.4941   57.0000 
2365.1250    8.5000    8.9890   95.0975    2.4238    2.5781    0.2316   89.3265    4.2824   57.0000 
2365.2250    8.5000    9.0380   96.8369    2.4441    2.5759    0.2304   89.5020    4.1972   57.0000 
2365.3250    8.5000    9.0299  100.2750    2.4123    2.5701    0.2320   90.1929    4.1348   57.0000 
2365.4250    8.5000    9.0217  104.8863    2.3192    2.5660    0.2366   91.3816    4.2079   57.0000 
2365.5250    8.5000    8.9890  109.4604    2.1929    2.5647    0.2427   92.7847    4.3839   57.0000 
2365.6250    8.5000    8.9399  112.7743    2.0771    2.5734    0.2501   93.9898    4.8043   57.0000 
2365.7250    8.5000    8.9072  113.5401    2.0054    2.5843    0.2569   94.5990    5.2491   57.0000 
2365.8250    8.5000    8.8908  113.2815    1.9969    2.5901    0.2623   94.3816    5.5459   57.0000 
2365.9250    8.5000    8.8826  111.6467    2.0618    2.5853    0.2622   93.2189    5.4483   57.0000 
2366.0250    8.5000    8.8663  108.6697    2.2079    2.5756    0.2538   91.0684    4.9714   57.0000 
2366.1250    8.5000    8.8499  104.6521    2.4535    2.5707    0.2356   87.7347    4.2682   57.0000 
2366.2250    8.5000    8.8581   97.1082    2.8554    2.5695    0.2089   83.6092    3.3547   57.0000 
2366.3250    8.5000    8.8581   85.4826    3.5512    2.5684    0.1759   79.1306    2.2319   57.0000 
2366.4250    8.5000    8.8581   72.5801    4.8093    2.5613    0.1417   75.2607    0.9488   57.0000 
2366.5250    8.5000    8.8663   60.5780    7.0889    2.5523    0.1120   72.8000   -0.2207   54.0000 
2366.6250    8.5000    8.8581   51.6870   10.9105    2.5342    0.0927   71.8128   -1.2259   49.0000 
2366.7250    8.5000    8.8663   48.2331   15.8195    2.5063    0.0843   72.2903   -2.0645   49.0000 
2366.8250    8.5000    8.8581   48.1892   19.1809    2.4683    0.0863   73.7536   -2.7565   49.0000 
2366.9250    8.5000    8.8744   49.7302   19.5521    2.4371    0.0961   75.8934   -3.0528   49.0000 
2367.0250    8.5000    8.8581   51.8065   18.7710    2.4191    0.1094   78.2490   -2.9706   49.0000 
2367.1250    8.5000    8.8499   51.8612   18.5911    2.4207    0.1214   80.0969   -2.5380   49.0000 
2367.2250    8.5000    8.8499   50.2672   19.7757    2.4309    0.1277   81.0189   -2.1269   49.0000 
2367.3250    8.5000    8.8581   46.6658   22.8637    2.4456    0.1302   81.0015   -1.7472   49.0000 
2367.4250    8.5000    8.8744   41.2044   28.5380    2.4500    0.1308   80.5694   -1.6404   49.0000 
2367.5250    8.5000    8.8908   36.5141   37.3253    2.4416    0.1322   80.1071   -1.7627   49.0000 
2367.6250    8.5000    8.8744   32.8979   49.4874    2.4161    0.1316   79.6852   -2.2917   49.0000 
2367.7250    8.5000    8.8663   30.7537   65.4749    2.3868    0.1289   79.3959   -2.9658   49.0000 
2367.8250    8.5000    8.8417   30.0699   91.1852    2.3620    0.1255   79.2546   -3.5781   49.0000 
2367.9250    8.5000    8.8335   29.6551  137.6472    2.3479    0.1235   79.3699   -3.9257   49.0000 
2368.0250    8.5000    8.8335   29.3209  222.6901    2.3411    0.1234   79.6281   -4.0643   49.0000 
2368.1250    8.5000    8.8663   29.2018  309.2566    2.3319    0.1246   79.9423   -4.2085   49.0000 
2368.2250    8.5000    8.8581   30.1506  307.4954    2.3205    0.1263   80.2893   -4.3799   49.0000 
2368.3250    8.5000    8.8744   32.1481  237.7957    2.3046    0.1275   80.7429   -4.6570   49.0000 
2368.4250    8.5000    8.8826   35.0598  170.0962    2.2995    0.1263   81.3694   -4.8005   49.0000 
2368.5250    8.5000    8.8581   39.1278  111.9844    2.3040    0.1240   82.0388   -4.7847   49.0000 
2368.6250    8.5000    8.8663   43.7989   66.7633    2.3208    0.1228   82.5857   -4.4888   49.0000 
2368.7250    8.5000    8.8663   47.3636   41.2077    2.3420    0.1255   82.9796   -3.9748   49.0000 
2368.8250    8.5000    8.8990   49.3765   28.5160    2.3650    0.1315   83.2541   -3.3155   49.0000 
2368.9250    8.5000    8.9072   49.3189   22.5858    2.3840    0.1387   83.4276   -2.6976   49.0000 
2369.0250    8.5000    8.9399   46.6222   20.3247    2.3940    0.1461   83.4102   -2.2491   49.0000 
2369.1250    8.5000    8.9808   43.4570   20.5315    2.3904    0.1510   83.1592   -2.1596   49.0000 
2369.2250    8.5000    9.0053   41.4288   22.9939    2.3759    0.1539   82.7423   -2.3524   49.0000 
2369.3250    8.5000    8.9971   40.9409   27.6959    2.3535    0.1529   82.4311   -2.8343   49.0000 
2369.4250    8.5000    8.9726   42.1048   33.1964    2.3336    0.1517   82.4281   -3.2705   49.0000 
2369.5250    8.5000    8.9808   45.4852   35.0517    2.3195    0.1516   82.4913   -3.5568   49.0000 
2369.6250    8.5000    8.9726   49.2804   31.2568    2.3192    0.1539   82.5342   -3.4866   49.0000 
2369.7250    8.5000    8.9808   54.0591   25.7930    2.3338    0.1565   82.4393   -3.1067   49.0000 
2369.8250    8.5000    8.9890   58.4151   21.7631    2.3621    0.1608   82.3974   -2.3993   49.0000 
