~VERSION INFORMATION
 VERS.                 2.0:   CWLS LOG ASCII STANDARD - VERSION 2.0
 WRAP.                  NO:   SINGLE LINE PER DEPTH STEP
 CREA.                 06/02/2020 16:06:00
#CREATED USING IP VERSION 4.5.2019.2902 BY RMOTA ON 06/02/2020 16:06:00
~WELL INFORMATION
#MNEM.UNIT       DATA                          DESCRIPTION MNEMONIC
#---------      ---------------------------   --------------------------
 STRT    .M         9.9250                    : START DEPTH
 STOP    .M         3087.0250                 : STOP DEPTH
 STEP    .M         0.1000                    : STEP VALUE
 NULL    .      -999.0000                     : NULL VALUE
 DATE    .      06/02/2020                    : LAS file Creation Date
 WELL   .      7-MP-22-BA       : Well Name
 COMP   .      PETROBRAS        : Company
 FLD    .      MASSAPE          : Field
 STATE  .      BAHIA            : State
 API    .      20240020649      : API Number
 UWI    .                       : Unique Well Identifier (UWI)
 LOC    .      SAD-69, MC=39G   : Location
 PDAT   .      NM               : Permanent Datum
 EPDAT  .      0                : Elevation of Permanent Datum
 LGMEA  .      MR               : Log Measured from
 DRMEA  .      MR               : Drill Measured From
 APDAT  .      66.39            : Elevation Above Permanent Datum
 KB     .      66.69            : KB Elevation
 DF     .      66.39            : DF Elevation
 GL     .      56.99            : GL Elevation
 RWS    .      -999             : Def_Rw
 WST    .      -999             : Def_Rwt
 PROV   .                       : Province
 SRVC   .                       : Contractor
 GDAT   .      WGS 84           : Geodatum
 LONG   .      -38.4321144443088: Longitude
 LATI   .      0                : Latitude
 COORDIN.                       : Grid System
 XCOORD .                       : X or East-West Coordinate
 YCOORD .                       : Y or North-South Coordinate
~CURVE INFORMATION
#MNEM              UNIT       API CODE   Curve Type Comments
#----------  --------------- ----------  ---------- -----------
 DEPTH      .M                         : Depth       
 BS         .in                        : BitSize     
 CALI       .in                        : Caliper     
 GR         .gAPI                      : GammaRay    
 HDRS       .ohm.m                     : DeepRes     
 RHOB       .g/cm3                     : Density     Loaded from DLIS: 7-mp-22-ba_raw-3.dlis
 NPHI       .m³/m³                     : Neutron     Loaded from DLIS: 7-mp-22-ba_raw-3.dlis
 DT         .uS/ft                     : Sonic       
 DRDN       .                          :             
 Lith_new   .                          :             
~A  DEPTH     BS       CALI       GR       HDRS      RHOB      NPHI       DT       DRDN    Lith_new 
# ...
2713.9250    8.5000    8.5800   49.6070   67.8155    2.3519    0.1240   76.9847   -3.8281   49.0000 
2714.0250    8.5000    8.5800   50.4060   71.2135    2.3510    0.1237   76.7551   -3.8558   49.0000 
2714.1250    8.5000    8.5718   51.4738   73.8787    2.3556    0.1239   76.3367   -3.7591   49.0000 
2714.2250    8.5000    8.6127   51.8503   74.4927    2.3617    0.1237   75.9082   -3.6403   49.0000 
2714.3250    8.5000    8.6127   50.7901   73.5567    2.3677    0.1225   75.5459   -3.5633   49.0000 
2714.4250    8.5000    8.6127   49.6607   71.6894    2.3690    0.1205   75.4133   -3.6053   49.0000 
2714.5250    8.5000    8.6127   48.6620   69.8795    2.3678    0.1174   75.4439   -3.7302   49.0000 
2714.6250    8.5000    8.5636   48.3163   68.0322    2.3679    0.1152   75.4541   -3.8022   49.0000 
2714.7250    8.5000    8.5636   49.6377   66.8216    2.3701    0.1125   75.2959   -3.8468   49.0000 
2714.8250    8.5000    8.5554   51.4124   66.1245    2.3767    0.1099   74.9077   -3.8030   49.0000 
2714.9250    8.5000    8.5881   52.9335   65.5781    2.3853    0.1072   74.6046   -3.7218   49.0000 
2715.0250    8.5000    8.5963   53.9938   64.6373    2.4031    0.1051   74.5923   -3.4346   49.0000 
2715.1250    8.5000    8.6290   53.6557   63.3841    2.4230    0.1043   74.9066   -3.0645   49.0000 
2715.2250    8.5000    8.6290   53.4252   62.7066    2.4389    0.1034   75.4515   -2.7748   49.0000 
2715.3250    8.5000    8.6127   53.4329   62.9951    2.4363    0.1034   75.9403   -2.8272   49.0000 
2715.4250    8.5000    8.5963   53.6250   63.5751    2.4203    0.1039   76.3505   -3.1312   49.0000 
2715.5250    8.5000    8.5718   55.5994   63.2371    2.4008    0.1058   76.6582   -3.4586   49.0000 
2715.6250    8.5000    8.6127   57.2589   61.6990    2.3862    0.1080   76.8571   -3.6746   49.0000 
2715.7250    8.5000    8.5881   58.1501   60.4987    2.3731    0.1103   76.9643   -3.8595   49.0000 
2715.8250    8.5000    8.6209   58.7570   60.7082    2.3592    0.1114   76.9235   -4.1035   49.0000 
2715.9250    8.5000    8.6290   58.0195   62.3466    2.3507    0.1112   76.7704   -4.2799   49.0000 
2716.0250    8.5000    8.5963   56.2678   64.9804    2.3513    0.1093   76.5357   -4.3328   49.0000 
2716.1250    8.5000    8.6209   54.5700   68.1657    2.3575    0.1076   76.2806   -4.2631   49.0000 
2716.2250    8.5000    8.6045   52.3189   72.4257    2.3616    0.1063   76.1071   -4.2245   49.0000 
2716.3250    8.5000    8.6127   49.9219   77.0476    2.3613    0.1066   76.0153   -4.2188   49.0000 
2716.4250    8.5000    8.6209   48.2010   80.5114    2.3603    0.1074   76.0000   -4.2139   49.0000 
2716.5250    8.5000    8.6045   46.2496   81.5687    2.3586    0.1087   76.0000   -4.2044   49.0000 
2716.6250    8.5000    8.6045   44.8207   81.2589    2.3612    0.1091   76.0000   -4.1414   49.0000 
2716.7250    8.5000    8.6045   43.7835   81.5890    2.3619    0.1090   76.0000   -4.1284   49.0000 
2716.8250    8.5000    8.6045   43.2611   82.9491    2.3682    0.1094   76.0000   -3.9904   49.0000 
2716.9250    8.5000    8.6127   43.7067   84.8075    2.3722    0.1105   76.0612   -3.8732   49.0000 
2717.0250    8.5000    8.5963   45.1894   86.5548    2.3830    0.1114   76.2857   -3.6256   49.0000 
2717.1250    8.5000    8.6209   47.6632   88.1235    2.3883    0.1113   76.5714   -3.5245   49.0000 
2717.2250    8.5000    8.6290   50.8592   89.5625    2.3933    0.1111   76.8367   -3.4301   49.0000 
2717.3250    8.5000    8.6290   53.6404   89.3775    2.3928    0.1109   76.8367   -3.4464   49.0000 
2717.4250    8.5000    8.6209   55.1615   86.7354    2.3931    0.1121   76.5714   -3.4026   49.0000 
2717.5250    8.5000    8.6045   55.8299   81.9487    2.3900    0.1131   76.2908   -3.4299   49.0000 
2717.6250    8.5000    8.6045   55.0002   76.8209    2.3841    0.1151   76.1378   -3.4805   49.0000 
2717.7250    8.5000    8.6127   53.8632   72.7438    2.3789    0.1162   76.2281   -3.5468   49.0000 
2717.8250    8.5000    8.6290   53.8555   70.0008    2.3786    0.1178   76.4260   -3.4998   49.0000 
2717.9250    8.5000    8.6372   52.8490   68.7318    2.3818    0.1186   76.5117   -3.4096   49.0000 
2718.0250    8.5000    8.6290   53.0949   68.0327    2.3835    0.1191   76.3571   -3.3580   49.0000 
2718.1250    8.5000    8.6454   55.1538   67.4138    2.3827    0.1190   76.0214   -3.3807   49.0000 
2718.2250    8.5000    8.6290   55.5226   65.9175    2.3824    0.1183   75.5816   -3.4094   49.0000 
2718.3250    8.5000    8.6045   56.9977   64.1924    2.3831    0.1174   75.1980   -3.4261   49.0000 
2718.4250    8.5000    8.6127   57.7967   62.3115    2.3815    0.1153   74.8393   -3.5255   49.0000 
2718.5250    8.5000    8.6045   55.9067   60.4498    2.3756    0.1136   74.5112   -3.7011   49.0000 
2718.6250    8.5000    8.6045   55.4688   58.5538    2.3702    0.1130   74.4975   -3.8276   49.0000 
2718.7250    8.5000    8.6127   55.3920   56.8967    2.3731    0.1130   74.7122   -3.7709   49.0000 
2718.8250    8.5000    8.6045   53.9938   55.8462    2.3816    0.1130   75.1347   -3.5998   49.0000 
2718.9250    8.5000    8.6045   53.2716   55.5614    2.3858    0.1105   75.4561   -3.6013   49.0000 
2719.0250    8.5000    8.6209   52.0039   56.1427    2.3816    0.1061   75.4776   -3.8301   49.0000 
2719.1250    8.5000    8.6290   49.1460   57.0682    2.3737    0.0985   75.3750   -4.2405   49.0000 
2719.2250    8.5000    8.6045   47.1562   58.3300    2.3783    0.0896   75.1265   -4.4485   49.0000 
2719.3250    8.5000    8.6209   46.1882   59.4483    2.4014    0.0820   74.8755   -4.2392   49.0000 
2719.4250    8.5000    8.5800   44.9589   61.2562    2.4425    0.0773   74.5408   -3.5725   49.0000 
2719.5250    8.5000    8.5963   44.8821   63.1276    2.4735    0.0775   74.2367   -2.9477   49.0000 
2719.6250    8.5000    8.5718   46.0499   65.2556    2.4759    0.0810   74.1245   -2.7808   49.0000 
2719.7250    8.5000    8.5636   46.6568   66.5311    2.4452    0.0877   74.4480   -3.1726   49.0000 
2719.8250    8.5000    8.5718   48.0166   66.6709    2.4115    0.0948   75.2036   -3.6097   49.0000 
2719.9250    8.5000    8.5636   50.2216   65.4447    2.3870    0.1013   76.1362   -3.8842   49.0000 
2720.0250    8.5000    8.5800   51.3279   63.0703    2.3806    0.1050   76.8061   -3.8876   49.0000 
2720.1250    8.5000    8.6045   51.9425   61.0266    2.3780    0.1062   76.9653   -3.9000   49.0000 
2720.2250    8.5000    8.6127   51.8042   59.8863    2.3808    0.1048   76.7163   -3.8909   49.0000 
2720.3250    8.5000    8.6372   49.9219   60.1635    2.3792    0.1028   76.4745   -3.9898   49.0000 
2720.4250    8.5000    8.6290   48.1933   61.1009    2.3728    0.1008   76.3980   -4.1833   49.0000 
2720.5250    8.5000    8.6290   47.7554   61.9459    2.3620    0.0990   76.3418   -4.4596   49.0000 
2720.6250    8.5000    8.6209   48.1549   62.5431    2.3540    0.0979   76.0153   -4.6552   49.0000 
2720.7250    8.5000    8.5963   49.8067   62.7240    2.3570    0.0980   75.2602   -4.5956   49.0000 
2720.8250    8.5000    8.6209   51.4892   62.9157    2.3674    0.0996   74.3214   -4.3307   49.0000 
2720.9250    8.5000    8.6127   52.4111   62.6967    2.3853    0.1014   73.4337   -3.9129   49.0000 
2721.0250    8.5000    8.6127   52.2267   62.5379    2.4024    0.1031   72.7194   -3.5148   49.0000 
2721.1250    8.5000    8.6209   51.2203   62.4338    2.4124    0.1051   72.4796   -3.2477   49.0000 
2721.2250    8.5000    8.5881   50.2523   62.6178    2.4071    0.1085   72.6122   -3.2425   49.0000 
2721.3250    8.5000    8.5718   49.0231   63.0147    2.3883    0.1124   73.2250   -3.4890   49.0000 
2721.4250    8.5000    8.5718   48.5237   63.7883    2.3715    0.1157   74.1158   -3.7139   49.0000 
2721.5250    8.5000    8.5636   48.7388   65.1796    2.3649    0.1180   75.0842   -3.7665   49.0000 
2721.6250    8.5000    8.5800   49.6607   67.1098    2.3682    0.1206   75.8852   -3.6171   49.0000 
2721.7250    8.5000    8.6045   51.3356   68.9304    2.3676    0.1225   76.4107   -3.5662   49.0000 
2721.8250    8.5000    8.6209   53.8862   69.4814    2.3638    0.1224   76.6893   -3.6445   49.0000 
