~VERSION INFORMATION
 VERS.                 2.0:   CWLS LOG ASCII STANDARD - VERSION 2.0
 WRAP.                  NO:   SINGLE LINE PER DEPTH STEP
 CREA.                 06/02/2020 16:06:00
#CREATED USING IP VERSION 4.5.2019.2902 BY RMOTA ON 06/02/2020 16:06:00
~WELL INFORMATION
#MNEM.UNIT       DATA                          DESCRIPTION MNEMONIC
#---------      ---------------------------   --------------------------
 STRT    .M         9.9250                    : START DEPTH
 STOP    .M         3087.0250                 : STOP DEPTH
 STEP    .M         0.1000                    : STEP VALUE
 NULL    .      -999.0000                     : NULL VALUE
 DATE    .      06/02/2020                    : LAS file Creation Date
 WELL   .      7-MP-22-BA       : Well Name
 COMP   .      PETROBRAS        : Company
 FLD    .      MASSAPE          : Field
 STATE  .      BAHIA            : State
 API    .      20240020649      : API Number
 UWI    .                       : Unique Well Identifier (UWI)
 LOC    .      SAD-69, MC=39G   : Location
 PDAT   .      NM               : Permanent Datum
 EPDAT  .      0                : Elevation of Permanent Datum
 LGMEA  .      MR               : Log Measured from
 DRMEA  .      MR               : Drill Measured From
 APDAT  .      66.39            : Elevation Above Permanent Datum
 KB     .      66.69            : KB Elevation
 DF     .      66.39            : DF Elevation
 GL     .      56.99            : GL Elevation
 RWS    .      -999             : Def_Rw
 WST    .      -999             : Def_Rwt
 PROV   .                       : Province
 SRVC   .                       : Contractor
 GDAT   .      WGS 84           : Geodatum
 LONG   .      -38.4321144443088: Longitude
 LATI   .      0                : Latitude
 COORDIN.                       : Grid System
 XCOORD .                       : X or East-West Coordinate
 YCOORD .                       : Y or North-South Coordinate
~CURVE INFORMATION
#MNEM              UNIT       API CODE   Curve Type Comments
#----------  --------------- ----------  ---------- -----------
 DEPTH      .M                         : Depth       
 BS         .in                        : BitSize     
 CALI       .in                        : Caliper     
 GR         .gAPI                      : GammaRay    
 HDRS       .ohm.m                     : DeepRes     
 RHOB       .g/cm3                     : Density     Loaded from DLIS: 7-mp-22-ba_raw-3.dlis
 NPHI       .m³/m³                     : Neutron     Loaded from DLIS: 7-mp-22-ba_raw-3.dlis
 DT         .uS/ft                     : Sonic       
 DRDN       .                          :             
 Lith_new   .                          :             
~A  DEPTH     BS       CALI       GR       HDRS      RHOB      NPHI       DT       DRDN    Lith_new 
# ...
3073.9250    8.5000 -999.0000 -999.0000   35.8960    2.5585    0.0711 -999.0000   -1.4591   49.0000 
3074.0250    8.5000 -999.0000 -999.0000   26.7262    2.5585    0.0711 -999.0000   -1.4591   49.0000 
3074.1250    8.5000 -999.0000 -999.0000 -999.0000    2.5585    0.0711 -999.0000   -1.4591   49.0000 
3074.2250    8.5000 -999.0000 -999.0000 -999.0000    2.5585    0.0711 -999.0000   -1.4591   49.0000 
3074.3250    8.5000 -999.0000 -999.0000 -999.0000    2.5585    0.0711 -999.0000   -1.4591   49.0000 
3074.4250    8.5000 -999.0000 -999.0000 -999.0000    2.5585    0.0711 -999.0000   -1.4591   49.0000 
3074.5250    8.5000 -999.0000 -999.0000 -999.0000    2.5585    0.0711 -999.0000   -1.4591   49.0000 
3074.6250    8.5000 -999.0000 -999.0000 -999.0000    2.5585    0.0711 -999.0000   -1.4591   49.0000 
3074.7250    8.5000 -999.0000 -999.0000 -999.0000    2.5585    0.0711 -999.0000   -1.4591   49.0000 
3074.8250    8.5000 -999.0000 -999.0000 -999.0000    2.5585    0.0711 -999.0000   -1.4591   49.0000 
3074.9250    8.5000 -999.0000 -999.0000 -999.0000    2.5585    0.0711 -999.0000   -1.4591   49.0000 
3075.0250    8.5000 -999.0000 -999.0000 -999.0000    2.5585    0.0711 -999.0000   -1.4591   49.0000 
3075.1250    8.5000 -999.0000 -999.0000 -999.0000    2.5585    0.0711 -999.0000   -1.4591   49.0000 
3075.2250    8.5000 -999.0000 -999.0000 -999.0000    2.5585    0.0711 -999.0000   -1.4591   49.0000 
3075.3250    8.5000 -999.0000 -999.0000 -999.0000    2.5585    0.0711 -999.0000   -1.4591   49.0000 
3075.4250    8.5000 -999.0000 -999.0000 -999.0000    2.5585    0.0711 -999.0000   -1.4591   49.0000 
3075.5250    8.5000 -999.0000 -999.0000 -999.0000    2.5585    0.0711 -999.0000   -1.4591   49.0000 
3075.6250    8.5000 -999.0000 -999.0000 -999.0000    2.5585    0.0711 -999.0000   -1.4591   49.0000 
3075.7250    8.5000 -999.0000 -999.0000 -999.0000    2.5585    0.0711 -999.0000   -1.4591   49.0000 
3075.8250    8.5000 -999.0000 -999.0000 -999.0000    2.5585    0.0711 -999.0000   -1.4591   49.0000 
3075.9250    8.5000 -999.0000 -999.0000 -999.0000    2.5585    0.0711 -999.0000   -1.4591   49.0000 
3076.0250    8.5000 -999.0000 -999.0000 -999.0000    2.5585    0.0711 -999.0000   -1.4591   49.0000 
3076.1250    8.5000 -999.0000 -999.0000 -999.0000    2.5585    0.0711 -999.0000   -1.4591   49.0000 
3076.2250    8.5000 -999.0000 -999.0000 -999.0000    2.5585    0.0711 -999.0000   -1.4591   49.0000 
3076.3250    8.5000 -999.0000 -999.0000 -999.0000    2.5585    0.0711 -999.0000   -1.4591   49.0000 
3076.4250    8.5000 -999.0000 -999.0000 -999.0000    2.5585    0.0711 -999.0000   -1.4591   49.0000 
3076.5250    8.5000 -999.0000 -999.0000 -999.0000    2.5585    0.0711 -999.0000   -1.4591   49.0000 
3076.6250    8.5000 -999.0000 -999.0000 -999.0000    2.5585    0.0711 -999.0000   -1.4591   49.0000 
3076.7250    8.5000 -999.0000 -999.0000 -999.0000    2.5585    0.0711 -999.0000   -1.4591   49.0000 
3076.8250    8.5000 -999.0000 -999.0000 -999.0000    2.5585    0.0711 -999.0000   -1.4591   49.0000 
3076.9250    8.5000 -999.0000 -999.0000 -999.0000    2.5585    0.0711 -999.0000   -1.4591   49.0000 
3077.0250    8.5000 -999.0000 -999.0000 -999.0000    2.5585    0.0711 -999.0000   -1.4591   49.0000 
3077.1250    8.5000 -999.0000 -999.0000 -999.0000    2.5585    0.0711 -999.0000   -1.4591   49.0000 
3077.2250    8.5000 -999.0000 -999.0000 -999.0000    2.5585    0.0711 -999.0000   -1.4591   49.0000 
3077.3250    8.5000 -999.0000 -999.0000 -999.0000    2.5585    0.0711 -999.0000   -1.4591   49.0000 
3077.4250    8.5000 -999.0000 -999.0000 -999.0000    2.5585    0.0711 -999.0000   -1.4591   49.0000 
3077.5250    8.5000 -999.0000 -999.0000 -999.0000    2.5585    0.0711 -999.0000   -1.4591   49.0000 
3077.6250    8.5000 -999.0000 -999.0000 -999.0000    2.5585    0.0711 -999.0000   -1.4591   49.0000 
3077.7250    8.5000 -999.0000 -999.0000 -999.0000    2.5585    0.0711 -999.0000   -1.4591   49.0000 
3077.8250    8.5000 -999.0000 -999.0000 -999.0000    2.5585    0.0711 -999.0000   -1.4591   49.0000 
3077.9250    8.5000 -999.0000 -999.0000 -999.0000    2.5585    0.0711 -999.0000   -1.4591   49.0000 
3078.0250    8.5000 -999.0000 -999.0000 -999.0000    2.5585    0.0711 -999.0000   -1.4591   49.0000 
3078.1250 -999.0000 -999.0000 -999.0000 -999.0000    2.5585    0.0711 -999.0000   -1.4591   49.0000 
3078.2250 -999.0000 -999.0000 -999.0000 -999.0000    2.5585    0.0711 -999.0000   -1.4591   49.0000 
3078.3250 -999.0000 -999.0000 -999.0000 -999.0000    2.5585    0.0711 -999.0000   -1.4591   49.0000 
3078.4250 -999.0000 -999.0000 -999.0000 -999.0000    2.5585    0.0711 -999.0000   -1.4591   49.0000 
3078.5250 -999.0000 -999.0000 -999.0000 -999.0000    2.5585    0.0711 -999.0000   -1.4591   49.0000 
3078.6250 -999.0000 -999.0000 -999.0000 -999.0000    2.5585    0.0711 -999.0000   -1.4591   49.0000 
3078.7250 -999.0000 -999.0000 -999.0000 -999.0000    2.5585    0.0711 -999.0000   -1.4591   49.0000 
3078.8250 -999.0000 -999.0000 -999.0000 -999.0000    2.5585    0.0711 -999.0000   -1.4591   49.0000 
3078.9250 -999.0000 -999.0000 -999.0000 -999.0000    2.5585    0.0711 -999.0000   -1.4591   49.0000 
3079.0250 -999.0000 -999.0000 -999.0000 -999.0000    2.5585    0.0711 -999.0000   -1.4591   49.0000 
3079.1250 -999.0000 -999.0000 -999.0000 -999.0000    2.5585    0.0711 -999.0000   -1.4591   49.0000 
3079.2250 -999.0000 -999.0000 -999.0000 -999.0000    2.5585    0.0711 -999.0000   -1.4591   49.0000 
3079.3250 -999.0000 -999.0000 -999.0000 -999.0000    2.5585    0.0711 -999.0000   -1.4591   49.0000 
3079.4250 -999.0000 -999.0000 -999.0000 -999.0000    2.5585    0.0711 -999.0000   -1.4591   49.0000 
3079.5250 -999.0000 -999.0000 -999.0000 -999.0000    2.5585    0.0711 -999.0000   -1.4591   49.0000 
3079.6250 -999.0000 -999.0000 -999.0000 -999.0000    2.5585    0.0711 -999.0000   -1.4591   49.0000 
3079.7250 -999.0000 -999.0000 -999.0000 -999.0000    2.5585    0.0711 -999.0000   -1.4591   49.0000 
3079.8250 -999.0000 -999.0000 -999.0000 -999.0000    2.5585    0.0711 -999.0000   -1.4591   49.0000 
3079.9250 -999.0000 -999.0000 -999.0000 -999.0000    2.5585    0.0711 -999.0000   -1.4591   49.0000 
3080.0250 -999.0000 -999.0000 -999.0000 -999.0000    2.5585    0.0711 -999.0000   -1.4591   49.0000 
3080.1250 -999.0000 -999.0000 -999.0000 -999.0000    2.5585    0.0711 -999.0000   -1.4591   49.0000 
3080.2250 -999.0000 -999.0000 -999.0000 -999.0000    2.5585    0.0711 -999.0000   -1.4591   49.0000 
3080.3250 -999.0000 -999.0000 -999.0000 -999.0000    2.5585    0.0711 -999.0000   -1.4591   49.0000 
3080.4250 -999.0000 -999.0000 -999.0000 -999.0000    2.5585    0.0711 -999.0000   -1.4591   49.0000 
3080.5250 -999.0000 -999.0000 -999.0000 -999.0000    2.5585    0.0711 -999.0000   -1.4591   49.0000 
3080.6250 -999.0000 -999.0000 -999.0000 -999.0000    2.5585    0.0711 -999.0000   -1.4591   49.0000 
3080.7250 -999.0000 -999.0000 -999.0000 -999.0000    2.5585    0.0711 -999.0000   -1.4591   49.0000 
3080.8250 -999.0000 -999.0000 -999.0000 -999.0000    2.5585    0.0711 -999.0000   -1.4591   49.0000 
3080.9250 -999.0000 -999.0000 -999.0000 -999.0000    2.5585    0.0711 -999.0000   -1.4591   49.0000 
3081.0250 -999.0000 -999.0000 -999.0000 -999.0000    2.5585    0.0711 -999.0000   -1.4591   49.0000 
3081.1250 -999.0000 -999.0000 -999.0000 -999.0000    2.5585    0.0711 -999.0000   -1.4591   49.0000 
3081.2250 -999.0000 -999.0000 -999.0000 -999.0000    2.5585    0.0711 -999.0000   -1.4591   49.0000 
3081.3250 -999.0000 -999.0000 -999.0000 -999.0000    2.5585    0.0711 -999.0000   -1.4591   49.0000 
3081.4250 -999.0000 -999.0000 -999.0000 -999.0000    2.5585    0.0711 -999.0000   -1.4591   49.0000 
3081.5250 -999.0000 -999.0000 -999.0000 -999.0000    2.5585    0.0711 -999.0000   -1.4591   49.0000 
3081.6250 -999.0000 -999.0000 -999.0000 -999.0000    2.5585    0.0711 -999.0000   -1.4591   49.0000 
3081.7250 -999.0000 -999.0000 -999.0000 -999.0000    2.5585    0.0711 -999.0000   -1.4591   49.0000 
3081.8250 -999.0000 -999.0000 -999.0000 -999.0000    2.5585    0.0711 -999.0000   -1.4591   49.0000 
