~VERSION INFORMATION
 VERS.                 2.0:   CWLS LOG ASCII STANDARD - VERSION 2.0
 WRAP.                  NO:   SINGLE LINE PER DEPTH STEP
 CREA.                 06/02/2020 16:06:00
#CREATED USING IP VERSION 4.5.2019.2902 BY RMOTA ON 06/02/2020 16:06:00
~WELL INFORMATION
#MNEM.UNIT       DATA                          DESCRIPTION MNEMONIC
#---------      ---------------------------   --------------------------
 STRT    .M         9.9250                    : START DEPTH
 STOP    .M         3087.0250                 : STOP DEPTH
 STEP    .M         0.1000                    : STEP VALUE
 NULL    .      -999.0000                     : NULL VALUE
 DATE    .      06/02/2020                    : LAS file Creation Date
 WELL   .      7-MP-22-BA       : Well Name
 COMP   .      PETROBRAS        : Company
 FLD    .      MASSAPE          : Field
 STATE  .      BAHIA            : State
 API    .      20240020649      : API Number
 UWI    .                       : Unique Well Identifier (UWI)
 LOC    .      SAD-69, MC=39G   : Location
 PDAT   .      NM               : Permanent Datum
 EPDAT  .      0                : Elevation of Permanent Datum
 LGMEA  .      MR               : Log Measured from
 DRMEA  .      MR               : Drill Measured From
 APDAT  .      66.39            : Elevation Above Permanent Datum
 KB     .      66.69            : KB Elevation
 DF     .      66.39            : DF Elevation
 GL     .      56.99            : GL Elevation
 RWS    .      -999             : Def_Rw
 WST    .      -999             : Def_Rwt
 PROV   .                       : Province
 SRVC   .                       : Contractor
 GDAT   .      WGS 84           : Geodatum
 LONG   .      -38.4321144443088: Longitude
 LATI   .      0                : Latitude
 COORDIN.                       : Grid System
 XCOORD .                       : X or East-West Coordinate
 YCOORD .                       : Y or North-South Coordinate
~CURVE INFORMATION
#MNEM              UNIT       API CODE   Curve Type Comments
#----------  --------------- ----------  ---------- -----------
 DEPTH      .M                         : Depth       
 BS         .in                        : BitSize     
 CALI       .in                        : Caliper     
 GR         .gAPI                      : GammaRay    
 HDRS       .ohm.m                     : DeepRes     
 RHOB       .g/cm3                     : Density     Loaded from DLIS: 7-mp-22-ba_raw-3.dlis
 NPHI       .m³/m³                     : Neutron     Loaded from DLIS: 7-mp-22-ba_raw-3.dlis
 DT         .uS/ft                     : Sonic       
 DRDN       .                          :             
 Lith_new   .                          :             
~A  DEPTH     BS       CALI       GR       HDRS      RHOB      NPHI       DT       DRDN    Lith_new 
# ...
2537.9250    8.5000    9.1280   75.9162    7.0828    2.6272    0.1600   77.4173    2.8767   57.0000 
2538.0250    8.5000    9.1117   79.5809    6.7244    2.6277    0.1698   76.1781    3.2134   57.0000 
2538.1250    8.5000    9.0953   83.7257    6.4585    2.6187    0.1804   75.8571    3.3887   57.0000 
2538.2250    8.5000    9.1198   86.9485    6.2644    2.6064    0.1876   76.6122    3.3817   57.0000 
2538.3250    8.5000    9.1280   88.8999    6.0496    2.5932    0.1906   77.8775    3.2177   57.0000 
2538.4250    8.5000    9.1280   90.3788    5.7789    2.5864    0.1889   79.1327    3.0245   57.0000 
2538.5250    8.5000    9.1525   90.5940    5.5087    2.5878    0.1858   80.0918    2.9504   57.0000 
2538.6250    8.5000    9.1280   91.6081    5.3235    2.5998    0.1820   80.8214    3.0617   57.0000 
2538.7250    8.5000    9.1117   93.1446    5.2665    2.6120    0.1799   81.1694    3.2364   57.0000 
2538.8250    8.5000    9.0953   95.8182    5.3160    2.6182    0.1807   81.2903    3.3866   57.0000 
2538.9250    8.5000    9.0871   99.3215    5.4087    2.6094    0.1851   81.4015    3.3570   57.0000 
2539.0250    8.5000    9.0708  101.1807    5.4833    2.6026    0.1900   81.5975    3.3850   57.0000 
2539.1250    8.5000    9.0708  100.3279    5.5197    2.5979    0.1926   81.8434    3.3766   57.0000 
2539.2250    8.5000    9.0789   96.5173    5.5342    2.6043    0.1915   81.9347    3.4696   57.0000 
2539.3250    8.5000    9.1117   92.1535    5.5506    2.6075    0.1899   81.6122    3.4809   57.0000 
2539.4250    8.5000    9.1117   89.6336    5.5779    2.6101    0.1873   80.9673    3.4455   57.0000 
2539.5250    8.5000    9.1198   90.3097    5.6019    2.6046    0.1866   80.1821    3.3122   57.0000 
2539.6250    8.5000    9.1198   92.4916    5.6105    2.6008    0.1854   79.6893    3.1955   57.0000 
2539.7250    8.5000    9.1362   96.9783    5.6196    2.5987    0.1879   79.6403    3.2371   57.0000 
2539.8250    8.5000    9.1525  101.7569    5.6555    2.6041    0.1922   80.0454    3.4886   57.0000 
2539.9250    8.5000    9.1444  105.3600    5.7083    2.6073    0.1987   80.5546    3.7686   57.0000 
2540.0250    8.5000    9.1525  109.0439    5.7244    2.6048    0.2032   80.9842    3.8687   57.0000 
2540.1250    8.5000    9.1198  108.7366    5.6504    2.6012    0.2030   81.2015    3.7902   57.0000 
2540.2250    8.5000    9.1198  106.5240    5.4973    2.6084    0.1963   81.2403    3.7091   57.0000 
2540.3250    8.5000    9.1117  103.6507    5.3354    2.6256    0.1853   81.0750    3.6876   57.0000 
2540.4250    8.5000    9.1444   99.9361    5.2425    2.6391    0.1755   80.5102    3.6322   57.0000 
2540.5250    8.5000    9.1117   98.9527    5.2668    2.6407    0.1700   79.5230    3.4787   57.0000 
2540.6250    8.5000    9.0953   98.7837    5.4200    2.6386    0.1699   78.1949    3.4360   57.0000 
2540.7250    8.5000    9.0462  100.9156    5.6747    2.6373    0.1719   77.0133    3.4763   57.0000 
2540.8250    8.5000    9.0053  104.9298    5.9645    2.6383    0.1780   76.5163    3.6986   57.0000 
2540.9250    8.5000    9.0053  107.7801    6.1991    2.6339    0.1878   77.1005    3.9381   57.0000 
2541.0250    8.5000    9.0299  111.7366    6.2965    2.6257    0.2022   78.8117    4.2554   57.0000 
2541.1250    8.5000    9.0544  113.9723    6.2063    2.6151    0.2146   80.8612    4.4558   57.0000 
2541.2250    8.5000    9.0462  114.2143    5.9184    2.6042    0.2194   82.6189    4.3961   57.0000 
2541.3250    8.5000    9.0135  114.7214    5.4957    2.5976    0.2149   83.3378    4.1146   57.0000 
2541.4250    8.5000    8.9808  111.4870    5.0663    2.5896    0.2028   82.9561    3.5501   57.0000 
2541.5250    8.5000    8.9971  107.0810    4.7453    2.5850    0.1900   81.9265    3.0345   57.0000 
2541.6250    8.5000    9.0380  103.5815    4.5871    2.5827    0.1787   80.6852    2.6098   57.0000 
2541.7250    8.5000    9.0626  100.2242    4.6071    2.5903    0.1734   79.6327    2.5847   57.0000 
2541.8250    8.5000    9.0708  100.5046    4.8017    2.5983    0.1726   78.8087    2.7188   57.0000 
2541.9250    8.5000    9.0871  101.3190    5.1398    2.5997    0.1769   78.1459    2.8915   57.0000 
2542.0250    8.5000    9.0871  101.3689    5.5415    2.5921    0.1828   77.8520    2.9352   57.0000 
2542.1250    8.5000    9.0462  100.4623    5.8767    2.5918    0.1877   77.8694    3.0911   57.0000 
2542.2250    8.5000    8.9971   98.4495    6.0273    2.6017    0.1910   78.2112    3.3994   57.0000 
2542.3250    8.5000    8.9890   96.2138    5.9838    2.6182    0.1941   78.6051    3.8335   57.0000 
2542.4250    8.5000    9.0053   94.2893    5.8518    2.6191    0.1973   78.6980    3.9587   57.0000 
2542.5250    8.5000    9.0135   93.2445    5.7555    2.6121    0.1980   78.6429    3.8397   57.0000 
2542.6250    8.5000    9.0217   92.1036    5.7618    2.6048    0.1953   78.1939    3.6058   57.0000 
2542.7250    8.5000    9.0217   92.0575    5.8770    2.6110    0.1889   77.4240    3.5163   57.0000 
2542.8250    8.5000    9.0299   90.9781    6.0642    2.6133    0.1801   76.3454    3.2710   57.0000 
2542.9250    8.5000    9.0626   87.9204    6.2494    2.6020    0.1685   75.0607    2.6582   57.0000 
2543.0250    8.5000    9.0217   83.4798    6.3803    2.5733    0.1562   74.1852    1.6718   57.0000 
2543.1250    8.5000    9.0053   79.0623    6.4839    2.5524    0.1440   73.9306    0.8488   57.0000 
2543.2250    8.5000    9.0053   77.7716    6.6291    2.5511    0.1343   74.4867    0.5006   57.0000 
2543.3250    8.5000    8.9726   79.8613    6.8113    2.5722    0.1275   75.4311    0.6928   57.0000 
2543.4250    8.5000    9.0135   85.4696    6.9097    2.5925    0.1273   76.0163    1.0944   57.0000 
2543.5250    8.5000    9.0135   90.0792    6.7733    2.5997    0.1347   76.0036    1.4854   57.0000 
2543.6250    8.5000    9.0053   92.8143    6.3984    2.5932    0.1511   75.5505    1.9023   57.0000 
2543.7250    8.5000    9.0462   94.9270    5.9514    2.5833    0.1691   75.2847    2.3011   57.0000 
2543.8250    8.5000    9.0053   95.0653    5.6099    2.5744    0.1847   75.8337    2.6444   57.0000 
2543.9250    8.5000    8.9971   96.4213    5.4465    2.5662    0.1933   77.2296    2.7696   57.0000 
2544.0250    8.5000    9.0135   97.3739    5.4248    2.5677    0.1995   79.1097    3.0053   57.0000 
2544.1250    8.5000    9.0053   96.2599    5.4292    2.5800    0.2017   80.7888    3.3241   57.0000 
2544.2250    8.5000    9.0380   94.0127    5.3301    2.6017    0.1996   81.9163    3.6882   57.0000 
2544.3250    8.5000    9.0626   89.6221    5.0989    2.6148    0.1900   82.2745    3.6286   57.0000 
2544.4250    8.5000    9.0626   84.7820    4.8428    2.6208    0.1767   81.6852    3.3063   57.0000 
2544.5250    8.5000    9.0789   81.8549    4.6922    2.6230    0.1693   80.3475    3.1021   57.0000 
2544.6250    8.5000    9.1198   80.9714    4.7122    2.6261    0.1730   78.5367    3.2882   57.0000 
2544.7250    8.5000    9.1117   82.9997    4.9011    2.6280    0.1878   77.1714    3.8209   57.0000 
2544.8250    8.5000    9.1035   86.8102    5.2228    2.6222    0.2002   76.7923    4.1161   57.0000 
2544.9250    8.5000    9.1117   91.3507    5.6003    2.6112    0.2065   77.3959    4.1071   57.0000 
2545.0250    8.5000    9.1035   94.9731    5.8845    2.5981    0.2057   78.5551    3.8199   57.0000 
2545.1250    8.5000    9.1198   97.3125    5.8876    2.5910    0.2045   79.8332    3.6370   57.0000 
2545.2250    8.5000    9.1444   99.0948    5.5737    2.5900    0.2021   80.8352    3.5381   57.0000 
2545.3250    8.5000    9.1444   98.0654    5.1466    2.5904    0.1986   81.6153    3.4277   57.0000 
2545.4250    8.5000    9.1607   96.8976    4.8366    2.5891    0.1953   81.8398    3.2921   57.0000 
2545.5250    8.5000    9.1525   96.5634    4.7392    2.5903    0.1955   81.7531    3.3226   57.0000 
2545.6250    8.5000    9.1362   97.0397    4.8231    2.5931    0.2000   81.6495    3.5267   57.0000 
2545.7250    8.5000    9.1444   99.6365    4.9747    2.5951    0.2044   81.7689    3.7154   57.0000 
2545.8250    8.5000    9.1198  102.1410    5.0421    2.5942    0.2072   82.1786    3.7922   57.0000 
