~VERSION INFORMATION
 VERS.                 2.0:   CWLS LOG ASCII STANDARD - VERSION 2.0
 WRAP.                  NO:   SINGLE LINE PER DEPTH STEP
 CREA.                 06/02/2020 16:06:00
#CREATED USING IP VERSION 4.5.2019.2902 BY RMOTA ON 06/02/2020 16:06:00
~WELL INFORMATION
#MNEM.UNIT       DATA                          DESCRIPTION MNEMONIC
#---------      ---------------------------   --------------------------
 STRT    .M         9.9250                    : START DEPTH
 STOP    .M         3087.0250                 : STOP DEPTH
 STEP    .M         0.1000                    : STEP VALUE
 NULL    .      -999.0000                     : NULL VALUE
 DATE    .      06/02/2020                    : LAS file Creation Date
 WELL   .      7-MP-22-BA       : Well Name
 COMP   .      PETROBRAS        : Company
 FLD    .      MASSAPE          : Field
 STATE  .      BAHIA            : State
 API    .      20240020649      : API Number
 UWI    .                       : Unique Well Identifier (UWI)
 LOC    .      SAD-69, MC=39G   : Location
 PDAT   .      NM               : Permanent Datum
 EPDAT  .      0                : Elevation of Permanent Datum
 LGMEA  .      MR               : Log Measured from
 DRMEA  .      MR               : Drill Measured From
 APDAT  .      66.39            : Elevation Above Permanent Datum
 KB     .      66.69            : KB Elevation
 DF     .      66.39            : DF Elevation
 GL     .      56.99            : GL Elevation
 RWS    .      -999             : Def_Rw
 WST    .      -999             : Def_Rwt
 PROV   .                       : Province
 SRVC   .                       : Contractor
 GDAT   .      WGS 84           : Geodatum
 LONG   .      -38.4321144443088: Longitude
 LATI   .      0                : Latitude
 COORDIN.                       : Grid System
 XCOORD .                       : X or East-West Coordinate
 YCOORD .                       : Y or North-South Coordinate
~CURVE INFORMATION
#MNEM              UNIT       API CODE   Curve Type Comments
#----------  --------------- ----------  ---------- -----------
 DEPTH      .M                         : Depth       
 BS         .in                        : BitSize     
 CALI       .in                        : Caliper     
 GR         .gAPI                      : GammaRay    
 HDRS       .ohm.m                     : DeepRes     
 RHOB       .g/cm3                     : Density     Loaded from DLIS: 7-mp-22-ba_raw-3.dlis
 NPHI       .m³/m³                     : Neutron     Loaded from DLIS: 7-mp-22-ba_raw-3.dlis
 DT         .uS/ft                     : Sonic       
 DRDN       .                          :             
 Lith_new   .                          :             
~A  DEPTH     BS       CALI       GR       HDRS      RHOB      NPHI       DT       DRDN    Lith_new 
# ...
 745.9250   12.2500   12.8736   23.0821    7.9865 -999.0000 -999.0000   89.9000 -999.0000 -999.0000 
 746.0250   12.2500   13.2417   73.0933    9.1856 -999.0000 -999.0000   86.8000 -999.0000 -999.0000 
 746.1250   12.2500   12.9963   57.7052   10.2127 -999.0000 -999.0000   86.4000 -999.0000 -999.0000 
 746.2250   12.2500   12.8736   80.7873   10.3163 -999.0000 -999.0000   87.0000 -999.0000 -999.0000 
 746.3250   12.2500   12.8736   75.0168    9.4024 -999.0000 -999.0000   89.9000 -999.0000 -999.0000 
 746.4250   12.2500   12.8736   98.0988    8.2179 -999.0000 -999.0000   95.9000 -999.0000 -999.0000 
 746.5250   12.2500   13.2417   95.2136    7.3050 -999.0000 -999.0000   98.1000 -999.0000 -999.0000 
 746.6250   12.2500   12.8736  103.8694    6.7905 -999.0000 -999.0000  100.3000 -999.0000 -999.0000 
 746.7250   12.2500   12.9963   76.9403    6.5866 -999.0000 -999.0000  100.5000 -999.0000 -999.0000 
 746.8250   12.2500   13.2417   57.7052    6.5696 -999.0000 -999.0000  100.0000 -999.0000 -999.0000 
 746.9250   12.2500   12.9963   73.0933    6.6208 -999.0000 -999.0000   98.6000 -999.0000 -999.0000 
 747.0250   12.2500   13.1190  100.0223    6.6687 -999.0000 -999.0000   99.0000 -999.0000 -999.0000 
 747.1250   12.2500   12.9963   61.5522    6.6804 -999.0000 -999.0000   99.9000 -999.0000 -999.0000 
 747.2250   12.2500   12.9963   80.7873    6.6618 -999.0000 -999.0000   99.2000 -999.0000 -999.0000 
 747.3250   12.2500   12.6282   76.9403    6.6430 -999.0000 -999.0000   98.8000 -999.0000 -999.0000 
 747.4250   12.2500   12.9963   92.3283    6.6568 -999.0000 -999.0000   99.0000 -999.0000 -999.0000 
 747.5250   12.2500   13.1190   88.4813    6.7126 -999.0000 -999.0000  100.2000 -999.0000 -999.0000 
 747.6250   12.2500   12.8736   57.7052    6.8043 -999.0000 -999.0000   99.6000 -999.0000 -999.0000 
 747.7250   12.2500   12.9963   92.3283    6.9181 -999.0000 -999.0000   99.2000 -999.0000 -999.0000 
 747.8250   12.2500   13.1190   73.0933    7.0410 -999.0000 -999.0000   99.4000 -999.0000 -999.0000 
 747.9250   12.2500   12.9963  118.2957    7.1116 -999.0000 -999.0000  101.0000 -999.0000 -999.0000 
 748.0250   12.2500   13.1190   96.1753    7.0698 -999.0000 -999.0000  102.8000 -999.0000 -999.0000 
 748.1250   12.2500   12.9963  111.5634    6.9192 -999.0000 -999.0000  102.4000 -999.0000 -999.0000 
 748.2250   12.2500   12.7509   84.6343    6.7982 -999.0000 -999.0000  101.0000 -999.0000 -999.0000 
 748.3250   12.2500   13.1190  115.4104    6.8691 -999.0000 -999.0000  100.2000 -999.0000 -999.0000 
 748.4250   12.2500   12.9963   76.9403    7.2408 -999.0000 -999.0000   97.9000 -999.0000 -999.0000 
 748.5250   12.2500   12.9963   80.7873    7.8995 -999.0000 -999.0000   95.1000 -999.0000 -999.0000 
 748.6250   12.2500   12.8736   88.4813    8.6929 -999.0000 -999.0000   93.7000 -999.0000 -999.0000 
 748.7250   12.2500   13.2417   69.2462    9.3651 -999.0000 -999.0000   91.2000 -999.0000 -999.0000 
 748.8250   12.2500   12.9963   76.9403    9.6999 -999.0000 -999.0000   91.3000 -999.0000 -999.0000 
 748.9250   12.2500   12.8736   98.0988    9.6514 -999.0000 -999.0000   93.3000 -999.0000 -999.0000 
 749.0250   12.2500   12.9963   65.3992    9.3154 -999.0000 -999.0000   94.3000 -999.0000 -999.0000 
 749.1250   12.2500   12.9963   92.3283    8.8434 -999.0000 -999.0000   95.1000 -999.0000 -999.0000 
 749.2250   12.2500   13.1190   83.6725    8.3664 -999.0000 -999.0000   96.9000 -999.0000 -999.0000 
 749.3250   12.2500   12.9963   92.3283    7.9867 -999.0000 -999.0000   97.7000 -999.0000 -999.0000 
 749.4250   12.2500   13.2417   61.5522    7.7603 -999.0000 -999.0000   97.7000 -999.0000 -999.0000 
 749.5250   12.2500   12.9963  103.8694    7.7328 -999.0000 -999.0000   96.4000 -999.0000 -999.0000 
 749.6250   12.2500   12.9963   92.3283    7.8931 -999.0000 -999.0000   95.9000 -999.0000 -999.0000 
 749.7250   12.2500   12.9963   86.5578    8.1727 -999.0000 -999.0000   96.4000 -999.0000 -999.0000 
 749.8250   12.2500   12.6282   88.4813    8.3911 -999.0000 -999.0000   95.6000 -999.0000 -999.0000 
 749.9250   12.2500   12.9963  109.6399    8.4188 -999.0000 -999.0000   94.9000 -999.0000 -999.0000 
 750.0250   12.2500   12.7509   96.1753    8.2431 -999.0000 -999.0000   95.8000 -999.0000 -999.0000 
 750.1250   12.2500   12.9963  100.0223    7.9911 -999.0000 -999.0000   97.3000 -999.0000 -999.0000 
 750.2250   12.2500   12.9963   80.7873    7.7659 -999.0000 -999.0000   97.1000 -999.0000 -999.0000 
 750.3250   12.2500   12.9963   83.0955    7.6613 -999.0000 -999.0000   96.1000 -999.0000 -999.0000 
 750.4250   12.2500   12.9963   54.8199    7.7375 -999.0000 -999.0000   95.3000 -999.0000 -999.0000 
 750.5250   12.2500   12.8736   89.4431    8.0279 -999.0000 -999.0000   93.7000 -999.0000 -999.0000 
 750.6250   12.2500   12.9963   76.9403    8.4797 -999.0000 -999.0000   93.3000 -999.0000 -999.0000 
 750.7250   12.2500   13.2417   69.2462    8.9921 -999.0000 -999.0000   90.1000 -999.0000 -999.0000 
 750.8250   12.2500   12.8736   69.2462    9.4582 -999.0000 -999.0000   88.8000 -999.0000 -999.0000 
 750.9250   12.2500   12.9963   75.0168    9.8741 -999.0000 -999.0000   88.1000 -999.0000 -999.0000 
 751.0250   12.2500   12.8736  121.1809   10.2696 -999.0000 -999.0000   88.1000 -999.0000 -999.0000 
 751.1250   12.2500   13.1190   84.6343   10.7128 -999.0000 -999.0000   86.8000 -999.0000 -999.0000 
 751.2250   12.2500   12.9963  109.6399   11.2216 -999.0000 -999.0000   84.1000 -999.0000 -999.0000 
 751.3250   12.2500   12.9963   57.7052   11.8039 -999.0000 -999.0000   84.6000 -999.0000 -999.0000 
 751.4250   12.2500   12.9963   65.3992   12.2823 -999.0000 -999.0000   85.5000 -999.0000 -999.0000 
 751.5250   12.2500   12.9963   57.7052   12.3667 -999.0000 -999.0000   87.2000 -999.0000 -999.0000 
 751.6250   12.2500   12.8736   60.5905   11.8828 -999.0000 -999.0000   88.2000 -999.0000 -999.0000 
 751.7250   12.2500   12.8736   63.4757   11.0735 -999.0000 -999.0000   89.6000 -999.0000 -999.0000 
 751.8250   12.2500   13.1190   57.7052   10.3198 -999.0000 -999.0000   92.2000 -999.0000 -999.0000 
 751.9250   12.2500   12.8736   61.5522    9.8351 -999.0000 -999.0000   93.7000 -999.0000 -999.0000 
 752.0250   12.2500   13.2417  100.0223    9.6160 -999.0000 -999.0000   93.5000 -999.0000 -999.0000 
 752.1250   12.2500   12.9963   69.2462    9.5498 -999.0000 -999.0000   93.5000 -999.0000 -999.0000 
 752.2250   12.2500   12.9963   63.4757    9.5251 -999.0000 -999.0000   93.1000 -999.0000 -999.0000 
 752.3250   12.2500   12.9963   98.0988    9.4930 -999.0000 -999.0000   93.1000 -999.0000 -999.0000 
 752.4250   12.2500   12.8736   63.4757    9.4722 -999.0000 -999.0000   93.5000 -999.0000 -999.0000 
 752.5250   12.2500   13.2417   65.3992    9.4989 -999.0000 -999.0000   93.1000 -999.0000 -999.0000 
 752.6250   12.2500   12.9963   80.7873    9.6150 -999.0000 -999.0000   93.3000 -999.0000 -999.0000 
 752.7250   12.2500   12.9963   57.7052    9.8460 -999.0000 -999.0000   93.5000 -999.0000 -999.0000 
 752.8250   12.2500   12.9963   63.4757   10.2048 -999.0000 -999.0000   93.6000 -999.0000 -999.0000 
 752.9250   12.2500   12.9963   54.8199   10.6937 -999.0000 -999.0000   91.8000 -999.0000 -999.0000 
 753.0250   12.2500   12.8736   54.8199   11.3469 -999.0000 -999.0000   91.4000 -999.0000 -999.0000 
 753.1250   12.2500   12.8736   37.5084   12.1674 -999.0000 -999.0000   90.4000 -999.0000 -999.0000 
 753.2250   12.2500   12.9963   57.7052   13.0081 -999.0000 -999.0000   89.2000 -999.0000 -999.0000 
 753.3250   12.2500   12.8736   65.3992   13.5441 -999.0000 -999.0000   89.4000 -999.0000 -999.0000 
 753.4250   12.2500   12.9963   50.0112   13.5379 -999.0000 -999.0000   89.5000 -999.0000 -999.0000 
 753.5250   12.2500   13.2417   46.1642   13.0947 -999.0000 -999.0000   90.1000 -999.0000 -999.0000 
 753.6250   12.2500   12.8736   80.7873   12.4906 -999.0000 -999.0000   91.5000 -999.0000 -999.0000 
 753.7250   12.2500   12.9963   40.3936   11.9289 -999.0000 -999.0000   92.8000 -999.0000 -999.0000 
 753.8250   12.2500   12.9963   80.7873   11.3789 -999.0000 -999.0000   95.0000 -999.0000 -999.0000 
