~VERSION INFORMATION
 VERS.                 2.0:   CWLS LOG ASCII STANDARD - VERSION 2.0
 WRAP.                  NO:   SINGLE LINE PER DEPTH STEP
 CREA.                 06/02/2020 16:06:00
#CREATED USING IP VERSION 4.5.2019.2902 BY RMOTA ON 06/02/2020 16:06:00
~WELL INFORMATION
#MNEM.UNIT       DATA                          DESCRIPTION MNEMONIC
#---------      ---------------------------   --------------------------
 STRT    .M         9.9250                    : START DEPTH
 STOP    .M         3087.0250                 : STOP DEPTH
 STEP    .M         0.1000                    : STEP VALUE
 NULL    .      -999.0000                     : NULL VALUE
 DATE    .      06/02/2020                    : LAS file Creation Date
 WELL   .      7-MP-22-BA       : Well Name
 COMP   .      PETROBRAS        : Company
 FLD    .      MASSAPE          : Field
 STATE  .      BAHIA            : State
 API    .      20240020649      : API Number
 UWI    .                       : Unique Well Identifier (UWI)
 LOC    .      SAD-69, MC=39G   : Location
 PDAT   .      NM               : Permanent Datum
 EPDAT  .      0                : Elevation of Permanent Datum
 LGMEA  .      MR               : Log Measured from
 DRMEA  .      MR               : Drill Measured From
 APDAT  .      66.39            : Elevation Above Permanent Datum
 KB     .      66.69            : KB Elevation
 DF     .      66.39            : DF Elevation
 GL     .      56.99            : GL Elevation
 RWS    .      -999             : Def_Rw
 WST    .      -999             : Def_Rwt
 PROV   .                       : Province
 SRVC   .                       : Contractor
 GDAT   .      WGS 84           : Geodatum
 LONG   .      -38.4321144443088: Longitude
 LATI   .      0                : Latitude
 COORDIN.                       : Grid System
 XCOORD .                       : X or East-West Coordinate
 YCOORD .                       : Y or North-South Coordinate
~CURVE INFORMATION
#MNEM              UNIT       API CODE   Curve Type Comments
#----------  --------------- ----------  ---------- -----------
 DEPTH      .M                         : Depth       
 BS         .in                        : BitSize     
 CALI       .in                        : Caliper     
 GR         .gAPI                      : GammaRay    
 HDRS       .ohm.m                     : DeepRes     
 RHOB       .g/cm3                     : Density     Loaded from DLIS: 7-mp-22-ba_raw-3.dlis
 NPHI       .m³/m³                     : Neutron     Loaded from DLIS: 7-mp-22-ba_raw-3.dlis
 DT         .uS/ft                     : Sonic       
 DRDN       .                          :             
 Lith_new   .                          :             
~A  DEPTH     BS       CALI       GR       HDRS      RHOB      NPHI       DT       DRDN    Lith_new 
# ...
1641.9250    8.5000   11.0912   82.9766    1.9666    2.4359    0.3291  102.0964    4.6883   57.0000 
1642.0250    8.5000   11.1321   86.5183    1.9391    2.4369    0.3163  102.7500    4.2795   57.0000 
1642.1250    8.5000   11.1975   89.1151    1.9024    2.4398    0.3054  102.8806    3.9765   57.0000 
1642.2250    8.5000   11.2712   87.8705    1.8698    2.4413    0.3022  102.2143    3.8984   57.0000 
1642.3250    8.5000   11.2630   86.1649    1.8524    2.4412    0.3010  100.8673    3.8582   57.0000 
1642.4250    8.5000   11.2057   83.5490    1.8526    2.4516    0.3010   99.0724    4.0640   57.0000 
1642.5250    8.5000   11.1403   83.0726    1.8676    2.4732    0.2955   97.1480    4.3125   57.0000 
1642.6250    8.5000   11.0667   86.0842    1.8909    2.4991    0.2930   95.8286    4.7479   57.0000 
1642.7250    8.5000   11.1321   87.8743    1.9154    2.5205    0.2913   95.1143    5.1193   57.0000 
1642.8250    8.5000   11.2548   89.6106    1.9390    2.5360    0.2932   94.8730    5.4948   57.0000 
1642.9250    8.5000   11.3121   90.8859    1.9605    2.5471    0.2936   95.0025    5.7271   57.0000 
1643.0250    8.5000   11.3530   90.9781    1.9760    2.5510    0.2942   95.5944    5.8260   57.0000 
1643.1250    8.5000   11.3693   92.2649    1.9789    2.5502    0.2963   96.5719    5.8804   57.0000 
1643.2250    8.5000   11.3530   93.6670    1.9652    2.5419    0.3022   97.6546    5.9115   57.0000 
1643.3250    8.5000   11.3202   93.3405    1.9380    2.5307    0.3103   98.2495    5.9591   57.0000 
1643.4250    8.5000   11.2712   93.4250    1.9080    2.5132    0.3159   98.5158    5.7928   57.0000 
1643.5250    8.5000   11.1566   93.6325    1.8852    2.4973    0.3219   98.8673    5.6781   57.0000 
1643.6250    8.5000   11.0012   94.5275    1.8684    2.4879    0.3265  100.0051    5.6422   57.0000 
1643.7250    8.5000   10.8213   96.9475    1.8468    2.4855    0.3329  101.9260    5.8082   57.0000 
1643.8250    8.5000   10.6086   98.7606    1.8105    2.4883    0.3344  104.0444    5.9137   57.0000 
1643.9250    8.5000   10.5268   99.9322    1.7568    2.4905    0.3331  105.4995    5.9123   57.0000 
1644.0250    8.5000   10.4941  100.7043    1.6940    2.4938    0.3257  105.5837    5.7327   57.0000 
1644.1250    8.5000   10.6004  100.2434    1.6408    2.4901    0.3163  104.1949    5.3457   57.0000 
1644.2250    8.5000   10.7558   99.3292    1.6155    2.4802    0.3039  101.9592    4.7341   57.0000 
1644.3250    8.5000   10.8867   98.2920    1.6301    2.4599    0.2918   99.5816    3.9238   57.0000 
1644.4250    8.5000   11.0748   96.8899    1.6890    2.4502    0.2783   97.6230    3.2822   57.0000 
1644.5250    8.5000   11.1730   96.5135    1.7799    2.4496    0.2741   96.3362    3.1284   57.0000 
1644.6250    8.5000   11.2466   96.1447    1.8624    2.4801    0.2838   95.8199    4.0620   57.0000 
1644.7250    8.5000   11.3202   95.7990    1.8836    2.5095    0.3060   96.5306    5.3917   57.0000 
1644.8250    8.5000   11.3366   95.4686    1.8371    2.5330    0.3221   98.4133    6.3958   57.0000 
1644.9250    8.5000   11.3366   93.9628    1.7545    2.5252    0.3273  100.9286    6.4134   57.0000 
1645.0250    8.5000   11.3121   92.8719    1.6802    2.5071    0.3250  102.7857    5.9741   57.0000 
1645.1250    8.5000   11.3448   92.7297    1.6359    2.4938    0.3274  103.2806    5.7889   57.0000 
1645.2250    8.5000   11.4020   91.8232    1.6178    2.4889    0.3307  102.6531    5.8015   57.0000 
1645.3250    8.5000   11.4593   91.9692    1.6129    2.4875    0.3331  101.8725    5.8522   57.0000 
1645.4250    8.5000   11.6147   91.6158    1.6108    2.4794    0.3314  102.0255    5.6359   57.0000 
1645.5250    8.5000   11.7701   89.5414    1.6053    2.4712    0.3325  102.8469    5.5073   57.0000 
1645.6250    8.5000   11.5574   89.5952    1.5943    2.4572    0.3374  103.9439    5.3910   57.0000 
1645.7250    8.5000   11.1321   89.2226    1.5804    2.4467    0.3442  104.7653    5.4060   57.0000 
1645.8250    8.5000   10.6495   89.2572    1.5703    2.4405    0.3483  105.3316    5.4191   57.0000 
1645.9250    8.5000   10.1669   88.9998    1.5725    2.4414    0.3456  104.8980    5.3478   57.0000 
1646.0250    8.5000   10.1260   85.2929    1.5960    2.4244    0.3342  103.2704    4.6280   57.0000 
1646.1250    8.5000   10.1178   80.7986    1.6488    2.3984    0.3053  100.1173    3.1435   57.0000 
1646.2250    8.5000   10.1014   75.4937    1.7401    2.3941    0.2617   95.8980    1.6036   57.0000 
1646.3250    8.5000   10.0932   71.9097    1.8880    2.4433    0.2130   91.7801    0.9673   57.0000 
1646.4250    8.5000   10.0851   71.9866    2.1287    2.5071    0.1808   87.9005    1.1672   57.0000 
1646.5250    8.5000   10.2323   73.9303    2.4836    2.5424    0.1712   84.3036    1.5525   57.0000 
1646.6250    8.5000   10.3714   77.4451    2.8940    2.5338    0.1786   81.1964    1.6296   57.0000 
1646.7250    8.5000   10.5104   79.7729    3.1846    2.5150    0.1933   79.3709    1.7456   57.0000 
1646.8250    8.5000   10.6168   80.0149    3.2285    2.5030    0.2120   79.9964    2.1283   57.0000 
1646.9250    8.5000   10.6249   78.9432    3.0815    2.4944    0.2376   83.0291    2.8084   57.0000 
1647.0250    8.5000   10.6413   77.9406    2.8484    2.4882    0.2684   87.2765    3.7122   57.0000 
1647.1250    8.5000   10.6658   78.6513    2.5849    2.4879    0.2935   91.0724    4.5401   57.0000 
1647.2250    8.5000   10.6740   80.0457    2.3202    2.5033    0.3061   93.8699    5.2689   57.0000 
1647.3250    8.5000   10.7313   81.7512    2.0888    2.5198    0.3064   95.9597    5.6105   57.0000 
1647.4250    8.5000   10.7967   82.5656    1.9236    2.5305    0.3035   97.6199    5.7286   57.0000 
1647.5250    8.5000   10.8785   82.4158    1.8306    2.5326    0.2972   98.6398    5.5591   57.0000 
1647.6250    8.5000   10.9603   82.2583    1.7936    2.5379    0.2878   98.4918    5.3507   57.0000 
1647.7250    8.5000   10.9767   81.5246    1.7968    2.5461    0.2789   97.7321    5.2185   57.0000 
1647.8250    8.5000   10.9685   80.3952    1.8261    2.5472    0.2771   96.6515    5.1784   57.0000 
1647.9250    8.5000   10.8294   79.6731    1.8706    2.5357    0.2805   95.8725    5.0659   57.0000 
1648.0250    8.5000   10.7149   79.8229    1.9191    2.5201    0.2832   95.2827    4.8421   57.0000 
1648.1250    8.5000   10.6331   81.4132    1.9615    2.5150    0.2836   94.8668    4.7521   57.0000 
1648.2250    8.5000   10.6086   84.2558    1.9891    2.5209    0.2821   94.5847    4.8221   57.0000 
1648.3250    8.5000   10.6986   85.5196    1.9971    2.5338    0.2829   94.2684    5.1056   57.0000 
1648.4250    8.5000   10.7804   85.0356    1.9883    2.5361    0.2830   93.5883    5.1562   57.0000 
1648.5250    8.5000   10.9194   83.6604    1.9762    2.5271    0.2844   92.6301    5.0224   57.0000 
1648.6250    8.5000   11.0421   81.4324    1.9744    2.5074    0.2813   92.0082    4.5253   57.0000 
1648.7250    8.5000   11.1157   80.8869    1.9849    2.4982    0.2763   92.2520    4.1721   57.0000 
1648.8250    8.5000   11.1894   83.3146    2.0033    2.5019    0.2718   93.6321    4.0985   57.0000 
1648.9250    8.5000   11.1975   85.8576    2.0218    2.5045    0.2733   95.1801    4.1988   57.0000 
1649.0250    8.5000   11.2057   88.5657    2.0329    2.4941    0.2792   96.7724    4.1868   57.0000 
1649.1250    8.5000   11.2139   91.1971    2.0367    2.4759    0.2840   98.0592    3.9840   57.0000 
1649.2250    8.5000   11.2221   89.7565    2.0478    2.4752    0.2873   99.0316    4.0805   57.0000 
1649.3250    8.5000   11.2384   88.3890    2.0788    2.4911    0.2916   99.9546    4.5407   57.0000 
1649.4250    8.5000   11.3039   86.4300    2.1258    2.5093    0.2968  100.0653    5.0812   57.0000 
1649.5250    8.5000   11.3857   83.6412    2.1730    2.5143    0.3020   99.9255    5.3517   57.0000 
1649.6250    8.5000   11.4675   83.4760    2.1995    2.5075    0.3034   99.3092    5.2628   57.0000 
1649.7250    8.5000   11.6556   84.4017    2.1855    2.5004    0.3044   98.4755    5.1556   57.0000 
1649.8250    8.5000   11.6474   87.2904    2.1219    2.4957    0.3043   97.9153    5.0599   57.0000 
