~VERSION INFORMATION
 VERS.                 2.0:   CWLS LOG ASCII STANDARD - VERSION 2.0
 WRAP.                  NO:   SINGLE LINE PER DEPTH STEP
 CREA.                 06/02/2020 16:06:00
#CREATED USING IP VERSION 4.5.2019.2902 BY RMOTA ON 06/02/2020 16:06:00
~WELL INFORMATION
#MNEM.UNIT       DATA                          DESCRIPTION MNEMONIC
#---------      ---------------------------   --------------------------
 STRT    .M         9.9250                    : START DEPTH
 STOP    .M         3087.0250                 : STOP DEPTH
 STEP    .M         0.1000                    : STEP VALUE
 NULL    .      -999.0000                     : NULL VALUE
 DATE    .      06/02/2020                    : LAS file Creation Date
 WELL   .      7-MP-22-BA       : Well Name
 COMP   .      PETROBRAS        : Company
 FLD    .      MASSAPE          : Field
 STATE  .      BAHIA            : State
 API    .      20240020649      : API Number
 UWI    .                       : Unique Well Identifier (UWI)
 LOC    .      SAD-69, MC=39G   : Location
 PDAT   .      NM               : Permanent Datum
 EPDAT  .      0                : Elevation of Permanent Datum
 LGMEA  .      MR               : Log Measured from
 DRMEA  .      MR               : Drill Measured From
 APDAT  .      66.39            : Elevation Above Permanent Datum
 KB     .      66.69            : KB Elevation
 DF     .      66.39            : DF Elevation
 GL     .      56.99            : GL Elevation
 RWS    .      -999             : Def_Rw
 WST    .      -999             : Def_Rwt
 PROV   .                       : Province
 SRVC   .                       : Contractor
 GDAT   .      WGS 84           : Geodatum
 LONG   .      -38.4321144443088: Longitude
 LATI   .      0                : Latitude
 COORDIN.                       : Grid System
 XCOORD .                       : X or East-West Coordinate
 YCOORD .                       : Y or North-South Coordinate
~CURVE INFORMATION
#MNEM              UNIT       API CODE   Curve Type Comments
#----------  --------------- ----------  ---------- -----------
 DEPTH      .M                         : Depth       
 BS         .in                        : BitSize     
 CALI       .in                        : Caliper     
 GR         .gAPI                      : GammaRay    
 HDRS       .ohm.m                     : DeepRes     
 RHOB       .g/cm3                     : Density     Loaded from DLIS: 7-mp-22-ba_raw-3.dlis
 NPHI       .m³/m³                     : Neutron     Loaded from DLIS: 7-mp-22-ba_raw-3.dlis
 DT         .uS/ft                     : Sonic       
 DRDN       .                          :             
 Lith_new   .                          :             
~A  DEPTH     BS       CALI       GR       HDRS      RHOB      NPHI       DT       DRDN    Lith_new 
# ...
 921.9250   12.2500   12.9963   89.4431    4.2648 -999.0000 -999.0000  106.2000 -999.0000 -999.0000 
 922.0250   12.2500   12.9963  103.8694    4.1030 -999.0000 -999.0000  106.3000 -999.0000 -999.0000 
 922.1250   12.2500   12.9963   89.4431    3.8614 -999.0000 -999.0000  108.4000 -999.0000 -999.0000 
 922.2250   12.2500   13.2417  103.8694    3.6204 -999.0000 -999.0000  111.7000 -999.0000 -999.0000 
 922.3250   12.2500   12.8736  103.8694    3.4372 -999.0000 -999.0000  112.4000 -999.0000 -999.0000 
 922.4250   12.2500   13.1190   75.0168    3.3312 -999.0000 -999.0000  114.8000 -999.0000 -999.0000 
 922.5250   12.2500   12.9963   98.0988    3.3205 -999.0000 -999.0000  113.0000 -999.0000 -999.0000 
 922.6250   12.2500   12.9963  115.4104    3.4264 -999.0000 -999.0000  112.5000 -999.0000 -999.0000 
 922.7250   12.2500   13.2417   69.2462    3.6775 -999.0000 -999.0000  111.0000 -999.0000 -999.0000 
 922.8250   12.2500   13.4871   61.5522    4.0831 -999.0000 -999.0000  107.7000 -999.0000 -999.0000 
 922.9250   12.2500   13.8552   69.2462    4.5903 -999.0000 -999.0000  105.9000 -999.0000 -999.0000 
 923.0250   12.2500   13.9779   69.2462    5.0390 -999.0000 -999.0000  104.1000 -999.0000 -999.0000 
 923.1250   12.2500   12.9963   75.0168    5.2163 -999.0000 -999.0000  103.8000 -999.0000 -999.0000 
 923.2250   12.2500   12.9963   80.7873    5.0427 -999.0000 -999.0000  105.8000 -999.0000 -999.0000 
 923.3250   12.2500   13.1190   90.0201    4.6051 -999.0000 -999.0000  108.5000 -999.0000 -999.0000 
 923.4250   12.2500   12.9963   95.2136    4.0619 -999.0000 -999.0000  114.9000 -999.0000 -999.0000 
 923.5250   12.2500   12.9963  107.7164    3.5390 -999.0000 -999.0000  116.7000 -999.0000 -999.0000 
 923.6250   12.2500   12.9963  100.9841    3.1223 -999.0000 -999.0000  118.7000 -999.0000 -999.0000 
 923.7250   12.2500   12.8736  109.6399    2.8434 -999.0000 -999.0000  123.2000 -999.0000 -999.0000 
 923.8250   12.2500   12.8736   98.0988    2.6993 -999.0000 -999.0000  125.1000 -999.0000 -999.0000 
 923.9250   12.2500   12.9963   76.9403    2.6642 -999.0000 -999.0000  125.4000 -999.0000 -999.0000 
 924.0250   12.2500   12.7509  132.7220    2.6980 -999.0000 -999.0000  124.5000 -999.0000 -999.0000 
 924.1250   12.2500   12.8736  144.2630    2.7525 -999.0000 -999.0000  123.0000 -999.0000 -999.0000 
 924.2250   12.2500   12.7509   96.1753    2.8044 -999.0000 -999.0000  123.8000 -999.0000 -999.0000 
 924.3250   12.2500   12.8736   63.4757    2.8716 -999.0000 -999.0000  123.7000 -999.0000 -999.0000 
 924.4250   12.2500   12.8736   73.0933    2.9972 -999.0000 -999.0000  121.0000 -999.0000 -999.0000 
 924.5250   12.2500   12.7509   86.5578    3.2301 -999.0000 -999.0000  118.6000 -999.0000 -999.0000 
 924.6250   12.2500   12.8736   98.0988    3.5884 -999.0000 -999.0000  119.0000 -999.0000 -999.0000 
 924.7250   12.2500   12.8736   84.6343    4.0427 -999.0000 -999.0000  117.3000 -999.0000 -999.0000 
 924.8250   12.2500   12.8736   84.6343    4.5194 -999.0000 -999.0000  115.6000 -999.0000 -999.0000 
 924.9250   12.2500   12.8736   57.7052    4.9296 -999.0000 -999.0000  115.7000 -999.0000 -999.0000 
 925.0250   12.2500   12.7509   57.7052    5.1945 -999.0000 -999.0000  117.7000 -999.0000 -999.0000 
 925.1250   12.2500   12.9963   92.3283    5.2789 -999.0000 -999.0000  119.4000 -999.0000 -999.0000 
 925.2250   12.2500   12.7509   75.0168    5.2120 -999.0000 -999.0000  119.9000 -999.0000 -999.0000 
 925.3250   12.2500   12.7509   86.5578    5.0883 -999.0000 -999.0000  120.5000 -999.0000 -999.0000 
 925.4250   12.2500   12.7509  103.8694    4.9999 -999.0000 -999.0000  122.0000 -999.0000 -999.0000 
 925.5250   12.2500   12.7509  119.2574    4.9747 -999.0000 -999.0000  122.4000 -999.0000 -999.0000 
 925.6250   12.2500   12.7509   69.2462    4.9844 -999.0000 -999.0000  122.2000 -999.0000 -999.0000 
 925.7250   12.2500   12.7509   88.4813    4.9826 -999.0000 -999.0000  124.0000 -999.0000 -999.0000 
 925.8250   12.2500   12.7509   95.2136    4.9398 -999.0000 -999.0000  124.5000 -999.0000 -999.0000 
 925.9250   12.2500   12.9963   60.5905    4.8636 -999.0000 -999.0000  124.4000 -999.0000 -999.0000 
 926.0250   12.2500   12.7509   84.6343    4.7801 -999.0000 -999.0000  125.9000 -999.0000 -999.0000 
 926.1250   12.2500   12.7509   98.0988    4.7131 -999.0000 -999.0000  127.9000 -999.0000 -999.0000 
 926.2250   12.2500   12.7509  107.7164    4.6716 -999.0000 -999.0000  127.6000 -999.0000 -999.0000 
 926.3250   12.2500   12.7509   96.1753    4.6478 -999.0000 -999.0000  127.1000 -999.0000 -999.0000 
 926.4250   12.2500   12.7509   65.3992    4.6067 -999.0000 -999.0000  127.4000 -999.0000 -999.0000 
 926.5250   12.2500   12.6282   46.1642    4.5037 -999.0000 -999.0000  127.9000 -999.0000 -999.0000 
 926.6250   12.2500   12.9963   84.6343    4.3061 -999.0000 -999.0000  127.3000 -999.0000 -999.0000 
 926.7250   12.2500   12.9963   96.1753    4.0293 -999.0000 -999.0000  128.2000 -999.0000 -999.0000 
 926.8250   12.2500   12.7509   92.3283    3.7450 -999.0000 -999.0000  129.1000 -999.0000 -999.0000 
 926.9250   12.2500   12.7509   80.7873    3.5335 -999.0000 -999.0000  128.7000 -999.0000 -999.0000 
 927.0250   12.2500   12.7509   53.8582    3.4308 -999.0000 -999.0000  129.8000 -999.0000 -999.0000 
 927.1250   12.2500   12.9963   96.1753    3.4221 -999.0000 -999.0000  130.4000 -999.0000 -999.0000 
 927.2250   12.2500   12.8736   86.5578    3.4613 -999.0000 -999.0000  129.7000 -999.0000 -999.0000 
 927.3250   12.2500   12.6282   72.1315    3.4947 -999.0000 -999.0000  130.9000 -999.0000 -999.0000 
 927.4250   12.2500   12.7509   80.7873    3.4904 -999.0000 -999.0000  130.7000 -999.0000 -999.0000 
 927.5250   12.2500   12.6282   89.4431    3.4515 -999.0000 -999.0000  130.7000 -999.0000 -999.0000 
 927.6250   12.2500   12.7509  103.8694    3.4033 -999.0000 -999.0000  131.7000 -999.0000 -999.0000 
 927.7250   12.2500   12.6282  111.5634    3.3761 -999.0000 -999.0000  131.7000 -999.0000 -999.0000 
 927.8250   12.2500   12.9963   75.0168    3.3877 -999.0000 -999.0000  131.3000 -999.0000 -999.0000 
 927.9250   12.2500   12.8736   75.0168    3.4423 -999.0000 -999.0000  129.6000 -999.0000 -999.0000 
 928.0250   12.2500   12.9963   63.4757    3.5280 -999.0000 -999.0000  127.4000 -999.0000 -999.0000 
 928.1250   12.2500   12.9963   75.0168    3.6179 -999.0000 -999.0000  127.4000 -999.0000 -999.0000 
 928.2250   12.2500   12.8736   84.6343    3.6831 -999.0000 -999.0000  124.8000 -999.0000 -999.0000 
 928.3250   12.2500   12.8736   84.6343    3.7024 -999.0000 -999.0000  121.9000 -999.0000 -999.0000 
 928.4250   12.2500   12.7509   88.4813    3.6607 -999.0000 -999.0000  120.5000 -999.0000 -999.0000 
 928.5250   12.2500   12.7509   98.0988    3.5468 -999.0000 -999.0000  120.7000 -999.0000 -999.0000 
 928.6250   12.2500   12.8736   92.3283    3.3596 -999.0000 -999.0000  121.1000 -999.0000 -999.0000 
 928.7250   12.2500   12.8736   66.3610    3.1333 -999.0000 -999.0000  122.1000 -999.0000 -999.0000 
 928.8250   12.2500   12.7509  109.6399    2.9300 -999.0000 -999.0000  122.3000 -999.0000 -999.0000 
 928.9250   12.2500   12.8736   96.1753    2.7993 -999.0000 -999.0000  124.0000 -999.0000 -999.0000 
 929.0250   12.2500   12.9963  121.1809    2.7674 -999.0000 -999.0000  120.3000 -999.0000 -999.0000 
 929.1250   12.2500   12.6282  103.8694    2.8460 -999.0000 -999.0000  117.8000 -999.0000 -999.0000 
 929.2250   12.2500   12.8736   46.1642    3.0358 -999.0000 -999.0000  114.6000 -999.0000 -999.0000 
 929.3250   12.2500   12.8736   92.3283    3.3188 -999.0000 -999.0000  111.2000 -999.0000 -999.0000 
 929.4250   12.2500   12.8736   73.0933    3.6550 -999.0000 -999.0000  107.7000 -999.0000 -999.0000 
 929.5250   12.2500   12.7509   46.1642    3.9891 -999.0000 -999.0000  104.0000 -999.0000 -999.0000 
 929.6250   12.2500   12.7509   73.0933    4.2689 -999.0000 -999.0000  103.9000 -999.0000 -999.0000 
 929.7250   12.2500   12.8736  103.8694    4.4698 -999.0000 -999.0000  103.8000 -999.0000 -999.0000 
 929.8250   12.2500   12.8736   76.1709    4.6042 -999.0000 -999.0000  102.9000 -999.0000 -999.0000 
