~VERSION INFORMATION
 VERS.                 2.0:   CWLS LOG ASCII STANDARD - VERSION 2.0
 WRAP.                  NO:   SINGLE LINE PER DEPTH STEP
 CREA.                 06/02/2020 16:06:00
#CREATED USING IP VERSION 4.5.2019.2902 BY RMOTA ON 06/02/2020 16:06:00
~WELL INFORMATION
#MNEM.UNIT       DATA                          DESCRIPTION MNEMONIC
#---------      ---------------------------   --------------------------
 STRT    .M         9.9250                    : START DEPTH
 STOP    .M         3087.0250                 : STOP DEPTH
 STEP    .M         0.1000                    : STEP VALUE
 NULL    .      -999.0000                     : NULL VALUE
 DATE    .      06/02/2020                    : LAS file Creation Date
 WELL   .      7-MP-22-BA       : Well Name
 COMP   .      PETROBRAS        : Company
 FLD    .      MASSAPE          : Field
 STATE  .      BAHIA            : State
 API    .      20240020649      : API Number
 UWI    .                       : Unique Well Identifier (UWI)
 LOC    .      SAD-69, MC=39G   : Location
 PDAT   .      NM               : Permanent Datum
 EPDAT  .      0                : Elevation of Permanent Datum
 LGMEA  .      MR               : Log Measured from
 DRMEA  .      MR               : Drill Measured From
 APDAT  .      66.39            : Elevation Above Permanent Datum
 KB     .      66.69            : KB Elevation
 DF     .      66.39            : DF Elevation
 GL     .      56.99            : GL Elevation
 RWS    .      -999             : Def_Rw
 WST    .      -999             : Def_Rwt
 PROV   .                       : Province
 SRVC   .                       : Contractor
 GDAT   .      WGS 84           : Geodatum
 LONG   .      -38.4321144443088: Longitude
 LATI   .      0                : Latitude
 COORDIN.                       : Grid System
 XCOORD .                       : X or East-West Coordinate
 YCOORD .                       : Y or North-South Coordinate
~CURVE INFORMATION
#MNEM              UNIT       API CODE   Curve Type Comments
#----------  --------------- ----------  ---------- -----------
 DEPTH      .M                         : Depth       
 BS         .in                        : BitSize     
 CALI       .in                        : Caliper     
 GR         .gAPI                      : GammaRay    
 HDRS       .ohm.m                     : DeepRes     
 RHOB       .g/cm3                     : Density     Loaded from DLIS: 7-mp-22-ba_raw-3.dlis
 NPHI       .m³/m³                     : Neutron     Loaded from DLIS: 7-mp-22-ba_raw-3.dlis
 DT         .uS/ft                     : Sonic       
 DRDN       .                          :             
 Lith_new   .                          :             
~A  DEPTH     BS       CALI       GR       HDRS      RHOB      NPHI       DT       DRDN    Lith_new 
# ...
1281.9250   12.2500   12.6282   57.7052    1.4106 -999.0000 -999.0000   86.2000 -999.0000 -999.0000 
1282.0250   12.2500   12.9963   80.7873    1.4153 -999.0000 -999.0000   85.4000 -999.0000 -999.0000 
1282.1250   12.2500   12.8736   63.4757    1.4371 -999.0000 -999.0000   84.9000 -999.0000 -999.0000 
1282.2250   12.2500   12.7509   30.7761    1.4775 -999.0000 -999.0000   84.4000 -999.0000 -999.0000 
1282.3250   12.2500   12.6282   57.7052    1.5362 -999.0000 -999.0000   83.4000 -999.0000 -999.0000 
1282.4250   12.2500   12.6282   34.6231    1.6112 -999.0000 -999.0000   83.1000 -999.0000 -999.0000 
1282.5250   12.2500   12.7509   57.7052    1.6971 -999.0000 -999.0000   82.6000 -999.0000 -999.0000 
1282.6250   12.2500   12.6282   50.0112    1.7864 -999.0000 -999.0000   82.3000 -999.0000 -999.0000 
1282.7250   12.2500   12.7509   61.5522    1.8667 -999.0000 -999.0000   82.5000 -999.0000 -999.0000 
1282.8250   12.2500   12.6282   65.3992    1.9197 -999.0000 -999.0000   82.8000 -999.0000 -999.0000 
1282.9250   12.2500   12.6282   28.8526    1.9355 -999.0000 -999.0000   83.0000 -999.0000 -999.0000 
1283.0250   12.2500   12.7509   46.1642    1.9220 -999.0000 -999.0000   83.4000 -999.0000 -999.0000 
1283.1250   12.2500   12.7509   46.1642    1.9032 -999.0000 -999.0000   83.4000 -999.0000 -999.0000 
1283.2250   12.2500   12.6282   84.6343    1.8925 -999.0000 -999.0000   83.5000 -999.0000 -999.0000 
1283.3250   12.2500   12.6282   57.7052    1.8866 -999.0000 -999.0000   83.5000 -999.0000 -999.0000 
1283.4250   12.2500   12.6282   65.3992    1.8704 -999.0000 -999.0000   83.2000 -999.0000 -999.0000 
1283.5250   12.2500   12.6282   53.8582    1.8378 -999.0000 -999.0000   82.7000 -999.0000 -999.0000 
1283.6250   12.2500   12.7509   96.1753    1.8018 -999.0000 -999.0000   82.6000 -999.0000 -999.0000 
1283.7250   12.2500   12.6282   63.4757    1.7861 -999.0000 -999.0000   82.9000 -999.0000 -999.0000 
1283.8250   12.2500   12.7509   53.8582    1.8069 -999.0000 -999.0000   81.8000 -999.0000 -999.0000 
1283.9250   12.2500   12.6282   34.6231    1.8788 -999.0000 -999.0000   78.2000 -999.0000 -999.0000 
1284.0250   12.2500   12.6282   50.0112    2.0052 -999.0000 -999.0000   77.8000 -999.0000 -999.0000 
1284.1250   12.2500   12.7509   61.5522    2.1675 -999.0000 -999.0000   77.9000 -999.0000 -999.0000 
1284.2250   12.2500   12.6282   49.0494    2.3140 -999.0000 -999.0000   78.3000 -999.0000 -999.0000 
1284.3250   12.2500   12.6282   60.5905    2.3873 -999.0000 -999.0000   78.4000 -999.0000 -999.0000 
1284.4250   12.2500   12.6282   73.0933    2.3731 -999.0000 -999.0000   79.4000 -999.0000 -999.0000 
1284.5250   12.2500   12.5055   63.4757    2.3124 -999.0000 -999.0000   82.1000 -999.0000 -999.0000 
1284.6250   12.2500   12.6282   57.7052    2.2616 -999.0000 -999.0000   83.1000 -999.0000 -999.0000 
1284.7250   12.2500   12.6282   53.8582    2.2427 -999.0000 -999.0000   83.1000 -999.0000 -999.0000 
1284.8250   12.2500   12.6282   50.0112    2.2444 -999.0000 -999.0000   82.6000 -999.0000 -999.0000 
1284.9250   12.2500   12.3828   92.3283    2.2393 -999.0000 -999.0000   82.6000 -999.0000 -999.0000 
1285.0250   12.2500   12.6282   73.0933    2.1990 -999.0000 -999.0000   82.8000 -999.0000 -999.0000 
1285.1250   12.2500   12.6282   51.9347    2.1191 -999.0000 -999.0000   84.3000 -999.0000 -999.0000 
1285.2250   12.2500   12.7509   60.5905    2.0129 -999.0000 -999.0000   85.3000 -999.0000 -999.0000 
1285.3250   12.2500   12.7509   65.3992    1.9039 -999.0000 -999.0000   87.1000 -999.0000 -999.0000 
1285.4250   12.2500   12.7509   40.3936    1.8131 -999.0000 -999.0000   87.7000 -999.0000 -999.0000 
1285.5250   12.2500   12.7509   51.9347    1.7613 -999.0000 -999.0000   88.1000 -999.0000 -999.0000 
1285.6250   12.2500   12.7509   63.4757    1.7659 -999.0000 -999.0000   87.6000 -999.0000 -999.0000 
1285.7250   12.2500   12.7509   57.7052    1.8371 -999.0000 -999.0000   86.8000 -999.0000 -999.0000 
1285.8250   12.2500   12.7509  100.0223    1.9803 -999.0000 -999.0000   85.6000 -999.0000 -999.0000 
1285.9250   12.2500   12.7509   57.7052    2.1994 -999.0000 -999.0000   85.0000 -999.0000 -999.0000 
1286.0250   12.2500   12.7509   86.5578    2.4729 -999.0000 -999.0000   84.7000 -999.0000 -999.0000 
1286.1250   12.2500   12.7509   50.0112    2.7521 -999.0000 -999.0000   84.7000 -999.0000 -999.0000 
1286.2250   12.2500   12.7509   53.8582    2.9799 -999.0000 -999.0000   84.7000 -999.0000 -999.0000 
1286.3250   12.2500   12.6282   76.9403    3.1192 -999.0000 -999.0000   83.6000 -999.0000 -999.0000 
1286.4250   12.2500   12.7509  103.8694    3.1448 -999.0000 -999.0000   83.1000 -999.0000 -999.0000 
1286.5250   12.2500   12.8736   50.0112    3.0466 -999.0000 -999.0000   82.6000 -999.0000 -999.0000 
1286.6250   12.2500   12.6282   65.3992    2.8229 -999.0000 -999.0000   82.9000 -999.0000 -999.0000 
1286.7250   12.2500   12.7509   34.6231    2.5153 -999.0000 -999.0000   82.9000 -999.0000 -999.0000 
1286.8250   12.2500   12.8736   57.7052    2.2095 -999.0000 -999.0000   83.2000 -999.0000 -999.0000 
1286.9250   12.2500   12.7509   61.5522    1.9624 -999.0000 -999.0000   84.3000 -999.0000 -999.0000 
1287.0250   12.2500   12.7509   38.4701    1.7914 -999.0000 -999.0000   85.6000 -999.0000 -999.0000 
1287.1250   12.2500   12.7509   42.3171    1.7025 -999.0000 -999.0000   86.4000 -999.0000 -999.0000 
1287.2250   12.2500   12.8736   69.2462    1.6921 -999.0000 -999.0000   86.2000 -999.0000 -999.0000 
1287.3250   12.2500   12.7509   76.9403    1.7593 -999.0000 -999.0000   86.4000 -999.0000 -999.0000 
1287.4250   12.2500   12.7509  103.8694    1.9087 -999.0000 -999.0000   87.6000 -999.0000 -999.0000 
1287.5250   12.2500   12.7509   96.1753    2.1420 -999.0000 -999.0000   87.9000 -999.0000 -999.0000 
1287.6250   12.2500   12.7509   80.7873    2.4263 -999.0000 -999.0000   87.2000 -999.0000 -999.0000 
1287.7250   12.2500   12.6282   69.2462    2.6973 -999.0000 -999.0000   86.7000 -999.0000 -999.0000 
1287.8250   12.2500   12.7509   50.0112    2.9015 -999.0000 -999.0000   86.1000 -999.0000 -999.0000 
1287.9250   12.2500   12.6282   73.0933    3.0344 -999.0000 -999.0000   84.5000 -999.0000 -999.0000 
1288.0250   12.2500   12.7509   73.0933    3.1252 -999.0000 -999.0000   83.6000 -999.0000 -999.0000 
1288.1250   12.2500   12.7509  121.1809    3.2004 -999.0000 -999.0000   82.7000 -999.0000 -999.0000 
1288.2250   12.2500   12.7509   75.0168    3.2533 -999.0000 -999.0000   83.2000 -999.0000 -999.0000 
1288.3250   12.2500   12.7509  109.6399    3.2651 -999.0000 -999.0000   84.0000 -999.0000 -999.0000 
1288.4250   12.2500   12.7509   84.6343    3.2281 -999.0000 -999.0000   84.8000 -999.0000 -999.0000 
1288.5250   12.2500   12.7509   37.5084    3.1484 -999.0000 -999.0000   85.0000 -999.0000 -999.0000 
1288.6250   12.2500   12.7509   43.2789    3.0413 -999.0000 -999.0000   85.2000 -999.0000 -999.0000 
1288.7250   12.2500   12.7509   60.5905    2.9309 -999.0000 -999.0000   85.1000 -999.0000 -999.0000 
1288.8250   12.2500   12.7509   76.9403    2.8394 -999.0000 -999.0000   84.2000 -999.0000 -999.0000 
1288.9250   12.2500   12.7509   46.1642    2.7774 -999.0000 -999.0000   83.6000 -999.0000 -999.0000 
1289.0250   12.2500   12.8736   75.0168    2.7428 -999.0000 -999.0000   83.5000 -999.0000 -999.0000 
1289.1250   12.2500   12.7509   92.3283    2.7226 -999.0000 -999.0000   83.5000 -999.0000 -999.0000 
1289.2250   12.2500   12.7509   42.3171    2.7014 -999.0000 -999.0000   83.7000 -999.0000 -999.0000 
1289.3250   12.2500   12.8736   61.5522    2.6784 -999.0000 -999.0000   83.8000 -999.0000 -999.0000 
1289.4250   12.2500   12.6282   69.2462    2.6637 -999.0000 -999.0000   83.6000 -999.0000 -999.0000 
1289.5250   12.2500   12.7509   84.6343    2.6649 -999.0000 -999.0000   83.8000 -999.0000 -999.0000 
1289.6250   12.2500   12.7509   50.0112    2.6794 -999.0000 -999.0000   83.8000 -999.0000 -999.0000 
1289.7250   12.2500   12.9963   53.8582    2.7011 -999.0000 -999.0000   83.5000 -999.0000 -999.0000 
1289.8250   12.2500   12.8736   69.2462    2.7335 -999.0000 -999.0000   83.4000 -999.0000 -999.0000 
