~VERSION INFORMATION
 VERS.                 2.0:   CWLS LOG ASCII STANDARD - VERSION 2.0
 WRAP.                  NO:   SINGLE LINE PER DEPTH STEP
 CREA.                 06/02/2020 16:06:00
#CREATED USING IP VERSION 4.5.2019.2902 BY RMOTA ON 06/02/2020 16:06:00
~WELL INFORMATION
#MNEM.UNIT       DATA                          DESCRIPTION MNEMONIC
#---------      ---------------------------   --------------------------
 STRT    .M         9.9250                    : START DEPTH
 STOP    .M         3087.0250                 : STOP DEPTH
 STEP    .M         0.1000                    : STEP VALUE
 NULL    .      -999.0000                     : NULL VALUE
 DATE    .      06/02/2020                    : LAS file Creation Date
 WELL   .      7-MP-22-BA       : Well Name
 COMP   .      PETROBRAS        : Company
 FLD    .      MASSAPE          : Field
 STATE  .      BAHIA            : State
 API    .      20240020649      : API Number
 UWI    .                       : Unique Well Identifier (UWI)
 LOC    .      SAD-69, MC=39G   : Location
 PDAT   .      NM               : Permanent Datum
 EPDAT  .      0                : Elevation of Permanent Datum
 LGMEA  .      MR               : Log Measured from
 DRMEA  .      MR               : Drill Measured From
 APDAT  .      66.39            : Elevation Above Permanent Datum
 KB     .      66.69            : KB Elevation
 DF     .      66.39            : DF Elevation
 GL     .      56.99            : GL Elevation
 RWS    .      -999             : Def_Rw
 WST    .      -999             : Def_Rwt
 PROV   .                       : Province
 SRVC   .                       : Contractor
 GDAT   .      WGS 84           : Geodatum
 LONG   .      -38.4321144443088: Longitude
 LATI   .      0                : Latitude
 COORDIN.                       : Grid System
 XCOORD .                       : X or East-West Coordinate
 YCOORD .                       : Y or North-South Coordinate
~CURVE INFORMATION
#MNEM              UNIT       API CODE   Curve Type Comments
#----------  --------------- ----------  ---------- -----------
 DEPTH      .M                         : Depth       
 BS         .in                        : BitSize     
 CALI       .in                        : Caliper     
 GR         .gAPI                      : GammaRay    
 HDRS       .ohm.m                     : DeepRes     
 RHOB       .g/cm3                     : Density     Loaded from DLIS: 7-mp-22-ba_raw-3.dlis
 NPHI       .m³/m³                     : Neutron     Loaded from DLIS: 7-mp-22-ba_raw-3.dlis
 DT         .uS/ft                     : Sonic       
 DRDN       .                          :             
 Lith_new   .                          :             
~A  DEPTH     BS       CALI       GR       HDRS      RHOB      NPHI       DT       DRDN    Lith_new 
# ...
 385.9250   12.2500 -999.0000   20.1968    3.3409 -999.0000 -999.0000  116.5000 -999.0000 -999.0000 
 386.0250   12.2500 -999.0000   31.7379    3.5422 -999.0000 -999.0000  116.5000 -999.0000 -999.0000 
 386.1250   12.2500 -999.0000   23.0821    3.8143 -999.0000 -999.0000  116.5000 -999.0000 -999.0000 
 386.2250   12.2500 -999.0000   46.1642    4.1372 -999.0000 -999.0000  116.5000 -999.0000 -999.0000 
 386.3250   12.2500 -999.0000   25.9673    4.4926 -999.0000 -999.0000  116.5000 -999.0000 -999.0000 
 386.4250   12.2500 -999.0000   17.3116    4.8467 -999.0000 -999.0000  116.5000 -999.0000 -999.0000 
 386.5250   12.2500 -999.0000   38.4701    5.1181 -999.0000 -999.0000  116.5000 -999.0000 -999.0000 
 386.6250   12.2500 -999.0000   50.0112    5.1956 -999.0000 -999.0000  116.5000 -999.0000 -999.0000 
 386.7250   12.2500 -999.0000   51.9347    5.0366 -999.0000 -999.0000  116.5000 -999.0000 -999.0000 
 386.8250   12.2500 -999.0000   19.2351    4.7132 -999.0000 -999.0000  116.5000 -999.0000 -999.0000 
 386.9250   12.2500 -999.0000   34.6231    4.3456 -999.0000 -999.0000  116.5000 -999.0000 -999.0000 
 387.0250   12.2500   13.2417   34.6231    4.0090 -999.0000 -999.0000  116.5000 -999.0000 -999.0000 
 387.1250   12.2500   13.2417   38.4701    3.7252 -999.0000 -999.0000  116.5000 -999.0000 -999.0000 
 387.2250   12.2500   13.2417   57.7052    3.4844 -999.0000 -999.0000  116.5000 -999.0000 -999.0000 
 387.3250   12.2500   13.2417   46.1642    3.3007 -999.0000 -999.0000  116.5000 -999.0000 -999.0000 
 387.4250   12.2500   13.2417   28.8526    3.1862 -999.0000 -999.0000  116.5000 -999.0000 -999.0000 
 387.5250   12.2500   13.2417   69.2462    3.1693 -999.0000 -999.0000  116.5000 -999.0000 -999.0000 
 387.6250   12.2500   13.2417   26.9291    3.2956 -999.0000 -999.0000  116.5000 -999.0000 -999.0000 
 387.7250   12.2500   13.1190   28.8526    3.7420 -999.0000 -999.0000  116.5000 -999.0000 -999.0000 
 387.8250   12.2500   13.4871   34.6231    4.7150 -999.0000 -999.0000  116.5000 -999.0000 -999.0000 
 387.9250   12.2500   13.2417   26.9291    7.0004 -999.0000 -999.0000  116.5000 -999.0000 -999.0000 
 388.0250   12.2500   13.2417   46.1642   12.3282 -999.0000 -999.0000  116.5000 -999.0000 -999.0000 
 388.1250   12.2500   13.2417   26.9291   20.9669 -999.0000 -999.0000  116.5000 -999.0000 -999.0000 
 388.2250   12.2500   13.4871   30.7761   23.7972 -999.0000 -999.0000  116.5000 -999.0000 -999.0000 
 388.3250   12.2500   13.2417   30.7761   31.6326 -999.0000 -999.0000  116.5000 -999.0000 -999.0000 
 388.4250   12.2500   13.2417   43.2789   41.9374 -999.0000 -999.0000  116.5000 -999.0000 -999.0000 
 388.5250   12.2500   13.2417   23.0821   27.8089 -999.0000 -999.0000  116.5000 -999.0000 -999.0000 
 388.6250   12.2500   13.1190   34.6231   18.9515 -999.0000 -999.0000  116.5000 -999.0000 -999.0000 
 388.7250   12.2500   13.2417   53.8582   14.2070 -999.0000 -999.0000  116.5000 -999.0000 -999.0000 
 388.8250   12.2500   13.2417   43.2789   11.3664 -999.0000 -999.0000  116.5000 -999.0000 -999.0000 
 388.9250   12.2500   13.2417   25.9673    9.6087 -999.0000 -999.0000  116.5000 -999.0000 -999.0000 
 389.0250   12.2500   13.2417   30.7761    8.5051 -999.0000 -999.0000  116.5000 -999.0000 -999.0000 
 389.1250   12.2500   13.2417   26.9291    7.7971 -999.0000 -999.0000  116.5000 -999.0000 -999.0000 
 389.2250   12.2500   13.2417   23.0821    7.4807 -999.0000 -999.0000  116.5000 -999.0000 -999.0000 
 389.3250   12.2500   13.2417   34.6231    7.3719 -999.0000 -999.0000  116.5000 -999.0000 -999.0000 
 389.4250   12.2500   13.2417   46.1642    7.3288 -999.0000 -999.0000  116.5000 -999.0000 -999.0000 
 389.5250   12.2500   13.1190   46.1642    7.1866 -999.0000 -999.0000  116.5000 -999.0000 -999.0000 
 389.6250   12.2500   13.1190   23.0821    6.9415 -999.0000 -999.0000  116.5000 -999.0000 -999.0000 
 389.7250   12.2500   13.2417   42.3171    6.7673 -999.0000 -999.0000  116.5000 -999.0000 -999.0000 
 389.8250   12.2500   13.2417   40.3936    6.9137 -999.0000 -999.0000  116.5000 -999.0000 -999.0000 
 389.9250   12.2500   13.2417   11.5410    7.5091 -999.0000 -999.0000  116.5000 -999.0000 -999.0000 
 390.0250   12.2500   13.1190   46.1642    8.4730 -999.0000 -999.0000  116.5000 -999.0000 -999.0000 
 390.1250   12.2500   13.2417   34.6231    9.4148 -999.0000 -999.0000  116.5000 -999.0000 -999.0000 
 390.2250   12.2500   13.2417   34.6231    9.6947 -999.0000 -999.0000  116.5000 -999.0000 -999.0000 
 390.3250   12.2500   13.2417   30.7761    9.4319 -999.0000 -999.0000  116.5000 -999.0000 -999.0000 
 390.4250   12.2500   13.3644   38.4701    8.7555 -999.0000 -999.0000  116.5000 -999.0000 -999.0000 
 390.5250   12.2500   13.2417   46.1642    7.9204 -999.0000 -999.0000  116.5000 -999.0000 -999.0000 
 390.6250   12.2500   13.2417   30.7761    7.0922 -999.0000 -999.0000  116.5000 -999.0000 -999.0000 
 390.7250   12.2500   13.1190   50.0112    6.3227 -999.0000 -999.0000  116.5000 -999.0000 -999.0000 
 390.8250   12.2500   13.2417   19.2351    5.7167 -999.0000 -999.0000  116.5000 -999.0000 -999.0000 
 390.9250   12.2500   13.2417   50.0112    5.3040 -999.0000 -999.0000   57.9000 -999.0000 -999.0000 
 391.0250   12.2500   13.2417   23.0821    5.0478 -999.0000 -999.0000   57.7000 -999.0000 -999.0000 
 391.1250   12.2500   13.2417   43.2789    4.8661 -999.0000 -999.0000   57.7000 -999.0000 -999.0000 
 391.2250   12.2500   13.1190   37.5084    4.6506 -999.0000 -999.0000   57.6000 -999.0000 -999.0000 
 391.3250   12.2500   13.2417   31.7379    4.3658 -999.0000 -999.0000   57.6000 -999.0000 -999.0000 
 391.4250   12.2500   13.2417   37.5084    4.0612 -999.0000 -999.0000   57.7000 -999.0000 -999.0000 
 391.5250   12.2500   13.2417   38.4701    3.6964 -999.0000 -999.0000   57.5000 -999.0000 -999.0000 
 391.6250   12.2500   13.2417   38.4701    4.8238 -999.0000 -999.0000   57.6000 -999.0000 -999.0000 
 391.7250   12.2500   13.2417   53.8582    7.9431 -999.0000 -999.0000   57.7000 -999.0000 -999.0000 
 391.8250   12.2500   13.2417   42.3171   10.5173 -999.0000 -999.0000   57.7000 -999.0000 -999.0000 
 391.9250   12.2500   13.4871   23.0821    8.1398 -999.0000 -999.0000   57.7000 -999.0000 -999.0000 
 392.0250   12.2500   13.3644   28.8526    4.9431 -999.0000 -999.0000   57.6000 -999.0000 -999.0000 
 392.1250   12.2500   13.1190   34.6231    3.2552 -999.0000 -999.0000   57.6000 -999.0000 -999.0000 
 392.2250   12.2500   13.2417   23.0821    2.5431 -999.0000 -999.0000   57.5000 -999.0000 -999.0000 
 392.3250   12.2500   13.2417   28.8526    2.3952 -999.0000 -999.0000   57.5000 -999.0000 -999.0000 
 392.4250   12.2500   13.2417   26.9291    2.2640 -999.0000 -999.0000   57.5000 -999.0000 -999.0000 
 392.5250   12.2500   13.2417   38.4701    3.7593 -999.0000 -999.0000   57.6000 -999.0000 -999.0000 
 392.6250   12.2500   13.2417   53.8582    6.2819 -999.0000 -999.0000   57.5000 -999.0000 -999.0000 
 392.7250   12.2500   13.2417   34.6231   12.7535 -999.0000 -999.0000   57.3000 -999.0000 -999.0000 
 392.8250   12.2500   13.2417   42.3171   31.5399 -999.0000 -999.0000   57.4000 -999.0000 -999.0000 
 392.9250   12.2500   13.1190   61.5522   95.2802 -999.0000 -999.0000   57.1000 -999.0000 -999.0000 
 393.0250   12.2500   13.2417   50.0112  352.3772 -999.0000 -999.0000   57.1000 -999.0000 -999.0000 
 393.1250   12.2500   13.2417   40.3936 1577.4856 -999.0000 -999.0000   57.2000 -999.0000 -999.0000 
 393.2250   12.2500   13.3644   23.0821 6556.7339 -999.0000 -999.0000   57.3000 -999.0000 -999.0000 
 393.3250   12.2500   13.2417   30.7761 6512.6411 -999.0000 -999.0000   57.1000 -999.0000 -999.0000 
 393.4250   12.2500   13.2417   34.6231 2668.5657 -999.0000 -999.0000   56.8000 -999.0000 -999.0000 
 393.5250   12.2500   13.1190   65.3992 1221.4508 -999.0000 -999.0000   55.5000 -999.0000 -999.0000 
 393.6250   12.2500   13.2417   50.0112  681.3779 -999.0000 -999.0000   56.4000 -999.0000 -999.0000 
 393.7250   12.2500   13.2417   40.3936  452.6672 -999.0000 -999.0000   60.6000 -999.0000 -999.0000 
 393.8250   12.2500   13.2417   40.3936  337.3540 -999.0000 -999.0000   61.8000 -999.0000 -999.0000 
