~VERSION INFORMATION
 VERS.                 2.0:   CWLS LOG ASCII STANDARD - VERSION 2.0
 WRAP.                  NO:   SINGLE LINE PER DEPTH STEP
 CREA.                 06/02/2020 16:06:00
#CREATED USING IP VERSION 4.5.2019.2902 BY RMOTA ON 06/02/2020 16:06:00
~WELL INFORMATION
#MNEM.UNIT       DATA                          DESCRIPTION MNEMONIC
#---------      ---------------------------   --------------------------
 STRT    .M         9.9250                    : START DEPTH
 STOP    .M         3087.0250                 : STOP DEPTH
 STEP    .M         0.1000                    : STEP VALUE
 NULL    .      -999.0000                     : NULL VALUE
 DATE    .      06/02/2020                    : LAS file Creation Date
 WELL   .      7-MP-22-BA       : Well Name
 COMP   .      PETROBRAS        : Company
 FLD    .      MASSAPE          : Field
 STATE  .      BAHIA            : State
 API    .      20240020649      : API Number
 UWI    .                       : Unique Well Identifier (UWI)
 LOC    .      SAD-69, MC=39G   : Location
 PDAT   .      NM               : Permanent Datum
 EPDAT  .      0                : Elevation of Permanent Datum
 LGMEA  .      MR               : Log Measured from
 DRMEA  .      MR               : Drill Measured From
 APDAT  .      66.39            : Elevation Above Permanent Datum
 KB     .      66.69            : KB Elevation
 DF     .      66.39            : DF Elevation
 GL     .      56.99            : GL Elevation
 RWS    .      -999             : Def_Rw
 WST    .      -999             : Def_Rwt
 PROV   .                       : Province
 SRVC   .                       : Contractor
 GDAT   .      WGS 84           : Geodatum
 LONG   .      -38.4321144443088: Longitude
 LATI   .      0                : Latitude
 COORDIN.                       : Grid System
 XCOORD .                       : X or East-West Coordinate
 YCOORD .                       : Y or North-South Coordinate
~CURVE INFORMATION
#MNEM              UNIT       API CODE   Curve Type Comments
#----------  --------------- ----------  ---------- -----------
 DEPTH      .M                         : Depth       
 BS         .in                        : BitSize     
 CALI       .in                        : Caliper     
 GR         .gAPI                      : GammaRay    
 HDRS       .ohm.m                     : DeepRes     
 RHOB       .g/cm3                     : Density     Loaded from DLIS: 7-mp-22-ba_raw-3.dlis
 NPHI       .m³/m³                     : Neutron     Loaded from DLIS: 7-mp-22-ba_raw-3.dlis
 DT         .uS/ft                     : Sonic       
 DRDN       .                          :             
 Lith_new   .                          :             
~A  DEPTH     BS       CALI       GR       HDRS      RHOB      NPHI       DT       DRDN    Lith_new 
# ...
1465.9250    8.5000    9.2507   89.5799    1.7394    2.3502    0.3876  120.7214    4.9252   57.0000 
1466.0250    8.5000    9.2507   91.7003    1.6317    2.4163    0.3672  119.7005    5.5652   57.0000 
1466.1250    8.5000    9.2425   93.1062    1.5899    2.4487    0.3506  119.1464    5.6604   57.0000 
1466.2250    8.5000    9.2425   94.4046    1.6112    2.4587    0.3393  117.8026    5.4826   57.0000 
1466.3250    8.5000    9.2998   95.4801    1.6873    2.4473    0.3394  116.2378    5.2591   57.0000 
1466.4250    8.5000    9.2998   94.9884    1.7967    2.4373    0.3401  115.0163    5.0809   57.0000 
1466.5250    8.5000    9.2998   94.8655    1.9063    2.4353    0.3428  114.6908    5.1321   57.0000 
1466.6250    8.5000    9.2752   94.5198    1.9923    2.4340    0.3411  114.9551    5.0516   57.0000 
1466.7250    8.5000    9.2916   94.1510    2.0536    2.4265    0.3380  115.3209    4.7946   57.0000 
1466.8250    8.5000    9.3325   94.8578    2.1055    2.4137    0.3292  115.8495    4.2488   57.0000 
1466.9250    8.5000    9.3407   93.4673    2.1685    2.4124    0.3223  115.3663    3.9920   57.0000 
1467.0250    8.5000    9.3652   88.9345    2.2587    2.4212    0.3182  113.3847    4.0301   57.0000 
1467.1250    8.5000    9.4061   81.5131    2.3911    2.4475    0.3141  110.0786    4.4205   57.0000 
1467.2250    8.5000    9.4225   73.8150    2.5929    2.4868    0.2999  106.0954    4.7338   57.0000 
1467.3250    8.5000    9.4634   69.9122    2.9075    2.5425    0.2805  105.3668    5.1996   57.0000 
1467.4250    8.5000    9.4634   70.8879    3.3522    2.5769    0.2681  107.8403    5.4747   57.0000 
1467.5250    8.5000    9.4634   76.5500    3.8022    2.5788    0.2745  113.0934    5.7256   57.0000 
1467.6250    8.5000    9.5288   83.5643    3.9363    2.5391    0.2946  117.5092    5.6031   57.0000 
1467.7250    8.5000    9.5943   88.1893    3.6049    2.4958    0.3147  118.8439    5.4067   57.0000 
1467.8250    8.5000    9.7088   91.4467    3.0695    2.4532    0.3261  118.2786    4.9342   57.0000 
1467.9250    8.5000    9.7988   92.6452    2.6297    2.4322    0.3279  118.3577    4.5758   57.0000 
1468.0250    8.5000    9.8887   91.5697    2.3684    2.4246    0.3329  120.2444    4.5885   57.0000 
1468.1250    8.5000    9.9869   90.1023    2.2388    2.4217    0.3388  122.6434    4.7290   57.0000 
1468.2250    8.5000   10.0687   87.6822    2.1780    2.4108    0.3481  122.6770    4.8196   57.0000 
1468.3250    8.5000   10.0932   84.7551    2.1352    2.3915    0.3509  119.5714    4.5287   57.0000 
1468.4250    8.5000    9.9624   83.7333    2.0785    2.3919    0.3584  116.3913    4.7866   57.0000 
1468.5250    8.5000    9.8069   84.1789    2.0039    2.4009    0.3670  115.1740    5.2523   57.0000 
1468.6250    8.5000    9.6188   84.3480    1.9251    2.4092    0.3789  116.5964    5.8136   57.0000 
1468.7250    8.5000    9.4879   85.1777    1.8553    2.3923    0.3842  119.7832    5.6512   57.0000 
1468.8250    8.5000    9.4634   84.7167    1.8009    2.3712    0.3863  122.4536    5.3014   57.0000 
1468.9250    8.5000    9.4634   84.2481    1.7657    2.3612    0.3844  124.1883    5.0363   57.0000 
1469.0250    8.5000    9.4552   85.5388    1.7514    2.3765    0.3805  125.6556    5.2132   57.0000 
1469.1250    8.5000    9.4388   87.3058    1.7572    2.3979    0.3700  126.7622    5.2928   57.0000 
1469.2250    8.5000    9.4552   89.7950    1.7883    2.4083    0.3570  128.0071    5.0679   57.0000 
1469.3250    8.5000    9.4879   90.9781    1.8576    2.4055    0.3457  129.4857    4.6339   57.0000 
1469.4250    8.5000    9.5288   90.9935    1.9828    2.4015    0.3403  129.9872    4.3748   57.0000 
1469.5250    8.5000    9.6433   90.0715    2.1708    2.4049    0.3376  129.3372    4.3533   57.0000 
1469.6250    8.5000    9.7415   89.4108    2.4022    2.4130    0.3345  126.5617    4.4122   57.0000 
1469.7250    8.5000    9.8397   89.5030    2.6465    2.4231    0.3321  121.6745    4.5326   57.0000 
1469.8250    8.5000    9.9133   90.3788    2.8599    2.4331    0.3309  117.5255    4.6905   57.0000 
1469.9250    8.5000   10.0033   91.9154    2.9808    2.4432    0.3319  114.0500    4.9264   57.0000 
1470.0250    8.5000   10.0932   92.1766    2.9780    2.4487    0.3324  111.9827    5.0557   57.0000 
1470.1250    8.5000   10.1505   91.7925    2.8688    2.4501    0.3355  110.4668    5.1841   57.0000 
1470.2250    8.5000   10.1914   89.1035    2.6963    2.4486    0.3416  109.4556    5.3594   57.0000 
1470.3250    8.5000   10.1996   85.4082    2.5103    2.4479    0.3518  110.6699    5.6852   57.0000 
1470.4250    8.5000   10.1669   82.2506    2.3452    2.4432    0.3636  114.3082    5.9834   57.0000 
1470.5250    8.5000   10.2159   79.0085    2.2076    2.4240    0.3689  119.6327    5.7765   57.0000 
1470.6250    8.5000   10.2159   77.1647    2.0894    2.3888    0.3685  124.4337    5.0598   57.0000 
1470.7250    8.5000   10.1832   75.5206    1.9847    2.3606    0.3616  126.8454    4.2656   57.0000 
1470.8250    8.5000   10.3141   74.9521    1.8897    2.3588    0.3615  126.2872    4.2253   57.0000 
1470.9250    8.5000   10.6249   76.0276    1.8076    2.3786    0.3692  123.5092    4.8789   57.0000 
1471.0250    8.5000   11.0258   77.8254    1.7541    2.3904    0.3816  119.7878    5.5292   57.0000 
1471.1250    8.5000   11.4184   80.2300    1.7311    2.3808    0.3908  116.6765    5.6429   57.0000 
1471.2250    8.5000   11.5002   81.8088    1.7255    2.3643    0.3900  115.0204    5.2857   57.0000 
1471.3250    8.5000   11.3611   82.3774    1.7246    2.3435    0.3862  115.0474    4.7424   57.0000 
1471.4250    8.5000   10.9031   83.0073    1.7231    2.3225    0.3806  116.2240    4.1381   57.0000 
1471.5250    8.5000   10.5268   84.0368    1.7233    2.2932    0.3819  117.2791    3.5935   57.0000 
1471.6250    8.5000   10.2078   84.9011    1.7330    2.2767    0.3844  117.2378    3.3479   57.0000 
1471.7250    8.5000   10.0769   86.1303    1.7563    2.2793    0.3844  115.4796    3.3991   57.0000 
1471.8250    8.5000   10.2568   86.0689    1.7849    2.3082    0.3776  112.6643    3.7498   57.0000 
1471.9250    8.5000   10.3468   85.8230    1.8080    2.3580    0.3658  109.1469    4.3526   57.0000 
1472.0250    8.5000   10.3059   86.5721    1.8208    2.4044    0.3591  105.9679    5.0584   57.0000 
1472.1250    8.5000   10.1260   86.9255    1.8262    2.4407    0.3540  103.2520    5.6142   57.0000 
1472.2250    8.5000    9.8887   88.6157    1.8274    2.4577    0.3544  101.6337    5.9682   57.0000 
1472.3250    8.5000    9.7988   89.4454    1.8251    2.4713    0.3493  101.3133    6.0677   57.0000 
1472.4250    8.5000    9.7906   88.4889    1.8200    2.4734    0.3472  102.1184    6.0422   57.0000 
1472.5250    8.5000    9.7660   87.9665    1.8155    2.4579    0.3462  103.8332    5.6978   57.0000 
1472.6250    8.5000    9.6597   86.4837    1.8158    2.4275    0.3532  105.4918    5.3226   57.0000 
1472.7250    8.5000    9.5779   85.3006    1.8289    2.3876    0.3638  106.5679    4.8790   57.0000 
1472.8250    8.5000    9.4961   85.7001    1.8629    2.3476    0.3760  106.8505    4.4854   57.0000 
1472.9250    8.5000    9.4797   85.7462    1.9241    2.3061    0.3825  106.8403    3.8721   57.0000 
1473.0250    8.5000    9.5288   86.1764    2.0177    2.2835    0.3744  107.1051    3.1488   57.0000 
1473.1250    8.5000    9.4797   86.6989    2.1372    2.2935    0.3479  107.3464    2.4658   57.0000 
1473.2250    8.5000    9.4879   87.1444    2.2621    2.3436    0.3138  106.7122    2.3310   57.0000 
1473.3250    8.5000    9.4716   88.7040    2.3817    2.4026    0.2876  104.8204    2.6403   57.0000 
1473.4250    8.5000    9.4143   91.0857    2.5061    2.4460    0.2797  102.0332    3.2437   57.0000 
1473.5250    8.5000    9.4307   93.5748    2.6594    2.4536    0.2856   99.6719    3.5919   57.0000 
1473.6250    8.5000    9.4470   95.3419    2.8587    2.4420    0.2983   98.4515    3.7858   57.0000 
1473.7250    8.5000    9.5043   95.1728    3.0840    2.4267    0.3115   98.7908    3.9189   57.0000 
1473.8250    8.5000    9.5779   93.6670    3.2670    2.4234    0.3230   99.8291    4.2370   57.0000 
