~VERSION INFORMATION
 VERS.                 2.0:   CWLS LOG ASCII STANDARD - VERSION 2.0
 WRAP.                  NO:   SINGLE LINE PER DEPTH STEP
 CREA.                 06/02/2020 16:06:00
#CREATED USING IP VERSION 4.5.2019.2902 BY RMOTA ON 06/02/2020 16:06:00
~WELL INFORMATION
#MNEM.UNIT       DATA                          DESCRIPTION MNEMONIC
#---------      ---------------------------   --------------------------
 STRT    .M         9.9250                    : START DEPTH
 STOP    .M         3087.0250                 : STOP DEPTH
 STEP    .M         0.1000                    : STEP VALUE
 NULL    .      -999.0000                     : NULL VALUE
 DATE    .      06/02/2020                    : LAS file Creation Date
 WELL   .      7-MP-22-BA       : Well Name
 COMP   .      PETROBRAS        : Company
 FLD    .      MASSAPE          : Field
 STATE  .      BAHIA            : State
 API    .      20240020649      : API Number
 UWI    .                       : Unique Well Identifier (UWI)
 LOC    .      SAD-69, MC=39G   : Location
 PDAT   .      NM               : Permanent Datum
 EPDAT  .      0                : Elevation of Permanent Datum
 LGMEA  .      MR               : Log Measured from
 DRMEA  .      MR               : Drill Measured From
 APDAT  .      66.39            : Elevation Above Permanent Datum
 KB     .      66.69            : KB Elevation
 DF     .      66.39            : DF Elevation
 GL     .      56.99            : GL Elevation
 RWS    .      -999             : Def_Rw
 WST    .      -999             : Def_Rwt
 PROV   .                       : Province
 SRVC   .                       : Contractor
 GDAT   .      WGS 84           : Geodatum
 LONG   .      -38.4321144443088: Longitude
 LATI   .      0                : Latitude
 COORDIN.                       : Grid System
 XCOORD .                       : X or East-West Coordinate
 YCOORD .                       : Y or North-South Coordinate
~CURVE INFORMATION
#MNEM              UNIT       API CODE   Curve Type Comments
#----------  --------------- ----------  ---------- -----------
 DEPTH      .M                         : Depth       
 BS         .in                        : BitSize     
 CALI       .in                        : Caliper     
 GR         .gAPI                      : GammaRay    
 HDRS       .ohm.m                     : DeepRes     
 RHOB       .g/cm3                     : Density     Loaded from DLIS: 7-mp-22-ba_raw-3.dlis
 NPHI       .m³/m³                     : Neutron     Loaded from DLIS: 7-mp-22-ba_raw-3.dlis
 DT         .uS/ft                     : Sonic       
 DRDN       .                          :             
 Lith_new   .                          :             
~A  DEPTH     BS       CALI       GR       HDRS      RHOB      NPHI       DT       DRDN    Lith_new 
# ...
2177.9250    8.5000    9.7006   95.2996    2.6239    2.5518    0.2383   91.5760    3.9792   57.0000 
2178.0250    8.5000    9.7170   95.0691    2.5400    2.5495    0.2390   94.6689    3.9554   57.0000 
2178.1250    8.5000    9.7415   94.4737    2.4463    2.5468    0.2389   97.5556    3.8980   57.0000 
2178.2250    8.5000    9.6924   93.8898    2.3509    2.5436    0.2393   99.3709    3.8491   57.0000 
2178.3250    8.5000    9.6352   92.6606    2.2636    2.5494    0.2397   97.5230    3.9785   57.0000 
2178.4250    8.5000    9.6024   91.8923    2.1980    2.5538    0.2452   94.9648    4.2516   57.0000 
2178.5250    8.5000    9.6270   91.5082    2.1603    2.5580    0.2514   92.6020    4.5390   57.0000 
2178.6250    8.5000    9.6597   92.4301    2.1460    2.5526    0.2573   91.8240    4.6294   57.0000 
2178.7250    8.5000    9.6188   93.8053    2.1463    2.5461    0.2581   92.6189    4.5268   57.0000 
2178.8250    8.5000    9.6106   93.5057    2.1528    2.5380    0.2581   93.5740    4.3640   57.0000 
2178.9250    8.5000    9.5697   90.6362    2.1583    2.5312    0.2590   94.5015    4.2570   57.0000 
2179.0250    8.5000    9.5861   88.4697    2.1564    2.5282    0.2585   95.1949    4.1819   57.0000 
2179.1250    8.5000    9.5779   87.3173    2.1434    2.5316    0.2546   95.5230    4.1208   57.0000 
2179.2250    8.5000    9.6024   88.9921    2.1263    2.5423    0.2480   95.4209    4.1109   57.0000 
2179.3250    8.5000    9.6270   93.1024    2.1210    2.5563    0.2427   94.8449    4.2154   57.0000 
2179.4250    8.5000    9.6024   93.8553    2.1425    2.5676    0.2415   93.8296    4.4015   57.0000 
2179.5250    8.5000    9.6106   92.4416    2.1969    2.5732    0.2417   92.3541    4.5202   57.0000 
2179.6250    8.5000    9.6106   89.2111    2.2755    2.5697    0.2434   90.5954    4.5089   57.0000 
2179.7250    8.5000    9.5861   86.4953    2.3606    2.5667    0.2465   88.7622    4.5514   57.0000 
2179.8250    8.5000    9.5779   86.9101    2.4400    2.5619    0.2512   87.2051    4.6096   57.0000 
2179.9250    8.5000    9.5943   88.4313    2.5053    2.5583    0.2564   86.2189    4.7126   57.0000 
2180.0250    8.5000    9.5779   90.7745    2.5490    2.5512    0.2580   86.0526    4.6243   57.0000 
2180.1250    8.5000    9.5861   92.8104    2.5680    2.5499    0.2592   86.7301    4.6359   57.0000 
2180.2250    8.5000    9.5943   94.8233    2.5652    2.5512    0.2579   87.9939    4.6205   57.0000 
2180.3250    8.5000    9.5779   97.4661    2.5563    2.5534    0.2587   89.5316    4.6902   57.0000 
2180.4250    8.5000    9.5779   99.4674    2.5630    2.5483    0.2584   90.8704    4.5792   57.0000 
2180.5250    8.5000    9.5943   99.8823    2.5931    2.5430    0.2610   91.9209    4.5610   57.0000 
2180.6250    8.5000    9.5697   98.8682    2.6427    2.5381    0.2620   92.5321    4.4957   57.0000 
2180.7250    8.5000    9.5697   97.2395    2.7017    2.5389    0.2618   92.6929    4.5042   57.0000 
2180.8250    8.5000    9.6188   96.2369    2.7511    2.5409    0.2586   92.5092    4.4378   57.0000 
2180.9250    8.5000    9.6188   97.3509    2.7651    2.5417    0.2552   92.1301    4.3401   57.0000 
2181.0250    8.5000    9.6433   98.9796    2.7229    2.5428    0.2546   91.8388    4.3447   57.0000 
2181.1250    8.5000    9.6597  101.3420    2.6262    2.5457    0.2560   91.9061    4.4475   57.0000 
2181.2250    8.5000    9.6515  102.2294    2.4975    2.5521    0.2609   92.3617    4.7381   57.0000 
2181.3250    8.5000    9.5943  100.9540    2.3592    2.5499    0.2649   93.1337    4.8298   57.0000 
2181.4250    8.5000    9.5288   99.4482    2.2291    2.5432    0.2688   94.0112    4.8225   57.0000 
2181.5250    8.5000    9.5043   96.3521    2.1260    2.5341    0.2692   94.7816    4.6553   57.0000 
2181.6250    8.5000    9.4716   94.2932    2.0684    2.5331    0.2673   95.2648    4.5702   57.0000 
2181.7250    8.5000    9.5043   93.7707    2.0680    2.5337    0.2612   95.3475    4.3791   57.0000 
2181.8250    8.5000    9.5697   92.7874    2.1230    2.5347    0.2522   94.8010    4.0982   57.0000 
2181.9250    8.5000    9.6188   92.9064    2.2164    2.5354    0.2426   93.7837    3.7942   57.0000 
2182.0250    8.5000    9.6433   93.1715    2.3205    2.5405    0.2372   92.4832    3.7159   57.0000 
2182.1250    8.5000    9.6433   94.2010    2.4007    2.5497    0.2354   91.4255    3.8410   57.0000 
2182.2250    8.5000    9.6024   96.0064    2.4258    2.5594    0.2361   91.0551    4.0584   57.0000 
2182.3250    8.5000    9.5615   96.9283    2.3855    2.5590    0.2358   91.4372    4.0396   57.0000 
2182.4250    8.5000    9.5534   98.3035    2.2929    2.5537    0.2387   92.4408    4.0314   57.0000 
2182.5250    8.5000    9.5288   97.9655    2.1761    2.5455    0.2450   93.6454    4.0766   57.0000 
2182.6250    8.5000    9.5043   97.5352    2.0680    2.5428    0.2559   94.8337    4.3867   57.0000 
2182.7250    8.5000    9.5043   98.0730    1.9931    2.5399    0.2654   95.8500    4.6448   57.0000 
2182.8250    8.5000    9.5125   97.3970    1.9482    2.5340    0.2716   96.6209    4.7354   57.0000 
2182.9250    8.5000    9.5452   97.8118    1.9181    2.5301    0.2722   97.0342    4.6744   57.0000 
2183.0250    8.5000    9.5779   97.9962    1.8943    2.5271    0.2681   97.0658    4.4795   57.0000 
2183.1250    8.5000    9.5779   98.5186    1.8784    2.5349    0.2611   96.7301    4.4026   57.0000 
2183.2250    8.5000    9.6024   99.0833    1.8802    2.5445    0.2530   96.1469    4.3250   57.0000 
2183.3250    8.5000    9.6024   97.8387    1.9069    2.5569    0.2470   95.4531    4.3704   57.0000 
2183.4250    8.5000    9.6106   96.5634    1.9521    2.5614    0.2429   94.6990    4.3257   57.0000 
2183.5250    8.5000    9.6106   93.8476    1.9969    2.5599    0.2430   93.9918    4.2979   57.0000 
2183.6250    8.5000    9.5943   93.2983    2.0241    2.5568    0.2463   93.3214    4.3475   57.0000 
2183.7250    8.5000    9.5779   94.1895    2.0368    2.5520    0.2519   92.7194    4.4362   57.0000 
2183.8250    8.5000    9.5615   94.5390    2.0528    2.5477    0.2553   92.1536    4.4645   57.0000 
2183.9250    8.5000    9.5861   95.7298    2.0881    2.5376    0.2550   91.4980    4.2513   57.0000 
2184.0250    8.5000    9.6106   93.9090    2.1501    2.5326    0.2505   90.7893    4.0007   57.0000 
2184.1250    8.5000    9.6188   90.1599    2.2299    2.5328    0.2464   90.1367    3.8668   57.0000 
2184.2250    8.5000    9.6352   87.5555    2.3025    2.5449    0.2452   89.6959    4.0717   57.0000 
2184.3250    8.5000    9.6515   84.6245    2.3392    2.5581    0.2463   89.7087    4.3726   57.0000 
2184.4250    8.5000    9.6433   83.7065    2.3218    2.5694    0.2471   90.2740    4.6254   57.0000 
2184.5250    8.5000    9.6270   85.6425    2.2555    2.5716    0.2474   91.3342    4.6775   57.0000 
2184.6250    8.5000    9.5779   86.8755    2.1665    2.5720    0.2486   92.6122    4.7282   57.0000 
2184.7250    8.5000    9.5452   88.5504    2.0865    2.5736    0.2515   93.7286    4.8546   57.0000 
2184.8250    8.5000    9.5615   89.3494    2.0318    2.5810    0.2539   94.5648    5.0845   57.0000 
2184.9250    8.5000    9.5861   88.9652    1.9989    2.5862    0.2569   95.1122    5.2873   57.0000 
2185.0250    8.5000    9.6106   88.7040    1.9748    2.5843    0.2589   95.4888    5.3162   57.0000 
2185.1250    8.5000    9.6188   87.6669    1.9492    2.5750    0.2577   95.8148    5.0916   57.0000 
2185.2250    8.5000    9.6188   86.3454    1.9200    2.5657    0.2526   96.0837    4.7332   57.0000 
2185.3250    8.5000    9.5861   84.8243    1.8910    2.5616    0.2458   96.2791    4.4247   57.0000 
2185.4250    8.5000    9.5697   84.4402    1.8678    2.5608    0.2407   96.4342    4.2383   57.0000 
2185.5250    8.5000    9.5370   86.1611    1.8550    2.5602    0.2387   96.3929    4.1588   57.0000 
2185.6250    8.5000    9.5043   87.6822    1.8537    2.5542    0.2399   96.1316    4.0800   57.0000 
2185.7250    8.5000    9.5125   89.6797    1.8592    2.5461    0.2449   95.8628    4.0859   57.0000 
2185.8250    8.5000    9.4879   89.7873    1.8627    2.5373    0.2523   95.7724    4.1572   57.0000 
