~VERSION INFORMATION
 VERS.                 2.0:   CWLS LOG ASCII STANDARD - VERSION 2.0
 WRAP.                  NO:   SINGLE LINE PER DEPTH STEP
 CREA.                 06/02/2020 16:06:00
#CREATED USING IP VERSION 4.5.2019.2902 BY RMOTA ON 06/02/2020 16:06:00
~WELL INFORMATION
#MNEM.UNIT       DATA                          DESCRIPTION MNEMONIC
#---------      ---------------------------   --------------------------
 STRT    .M         9.9250                    : START DEPTH
 STOP    .M         3087.0250                 : STOP DEPTH
 STEP    .M         0.1000                    : STEP VALUE
 NULL    .      -999.0000                     : NULL VALUE
 DATE    .      06/02/2020                    : LAS file Creation Date
 WELL   .      7-MP-22-BA       : Well Name
 COMP   .      PETROBRAS        : Company
 FLD    .      MASSAPE          : Field
 STATE  .      BAHIA            : State
 API    .      20240020649      : API Number
 UWI    .                       : Unique Well Identifier (UWI)
 LOC    .      SAD-69, MC=39G   : Location
 PDAT   .      NM               : Permanent Datum
 EPDAT  .      0                : Elevation of Permanent Datum
 LGMEA  .      MR               : Log Measured from
 DRMEA  .      MR               : Drill Measured From
 APDAT  .      66.39            : Elevation Above Permanent Datum
 KB     .      66.69            : KB Elevation
 DF     .      66.39            : DF Elevation
 GL     .      56.99            : GL Elevation
 RWS    .      -999             : Def_Rw
 WST    .      -999             : Def_Rwt
 PROV   .                       : Province
 SRVC   .                       : Contractor
 GDAT   .      WGS 84           : Geodatum
 LONG   .      -38.4321144443088: Longitude
 LATI   .      0                : Latitude
 COORDIN.                       : Grid System
 XCOORD .                       : X or East-West Coordinate
 YCOORD .                       : Y or North-South Coordinate
~CURVE INFORMATION
#MNEM              UNIT       API CODE   Curve Type Comments
#----------  --------------- ----------  ---------- -----------
 DEPTH      .M                         : Depth       
 BS         .in                        : BitSize     
 CALI       .in                        : Caliper     
 GR         .gAPI                      : GammaRay    
 HDRS       .ohm.m                     : DeepRes     
 RHOB       .g/cm3                     : Density     Loaded from DLIS: 7-mp-22-ba_raw-3.dlis
 NPHI       .m³/m³                     : Neutron     Loaded from DLIS: 7-mp-22-ba_raw-3.dlis
 DT         .uS/ft                     : Sonic       
 DRDN       .                          :             
 Lith_new   .                          :             
~A  DEPTH     BS       CALI       GR       HDRS      RHOB      NPHI       DT       DRDN    Lith_new 
# ...
1097.9250   12.2500   12.7509  107.7164    2.9179 -999.0000 -999.0000  101.5000 -999.0000 -999.0000 
1098.0250   12.2500   12.6282  115.4104    2.6828 -999.0000 -999.0000  105.8000 -999.0000 -999.0000 
1098.1250   12.2500   12.7509   61.5522    2.5157 -999.0000 -999.0000  108.1000 -999.0000 -999.0000 
1098.2250   12.2500   12.7509   80.7873    2.4529 -999.0000 -999.0000  110.6000 -999.0000 -999.0000 
1098.3250   12.2500   12.7509   69.2462    2.5188 -999.0000 -999.0000  109.1000 -999.0000 -999.0000 
1098.4250   12.2500   12.7509   80.7873    2.7370 -999.0000 -999.0000  103.7000 -999.0000 -999.0000 
1098.5250   12.2500   12.7509   75.0168    3.1385 -999.0000 -999.0000  101.6000 -999.0000 -999.0000 
1098.6250   12.2500   12.7509   80.7873    3.7702 -999.0000 -999.0000   97.4000 -999.0000 -999.0000 
1098.7250   12.2500   12.6282   96.1753    4.6595 -999.0000 -999.0000   94.8000 -999.0000 -999.0000 
1098.8250   12.2500   12.7509   63.4757    5.7391 -999.0000 -999.0000   86.2000 -999.0000 -999.0000 
1098.9250   12.2500   12.7509   53.8582    6.8445 -999.0000 -999.0000   84.4000 -999.0000 -999.0000 
1099.0250   12.2500   12.7509   92.3283    7.8596 -999.0000 -999.0000   84.0000 -999.0000 -999.0000 
1099.1250   12.2500   12.7509   65.3992    8.7019 -999.0000 -999.0000   83.5000 -999.0000 -999.0000 
1099.2250   12.2500   12.7509   50.0112    9.2657 -999.0000 -999.0000   82.7000 -999.0000 -999.0000 
1099.3250   12.2500   12.7509   95.2136    9.4692 -999.0000 -999.0000   82.1000 -999.0000 -999.0000 
1099.4250   12.2500   12.7509   69.2462    9.3732 -999.0000 -999.0000   82.5000 -999.0000 -999.0000 
1099.5250   12.2500   12.7509   60.5905    9.1500 -999.0000 -999.0000   84.4000 -999.0000 -999.0000 
1099.6250   12.2500   12.7509   53.8582    8.8813 -999.0000 -999.0000   85.0000 -999.0000 -999.0000 
1099.7250   12.2500   12.6282   17.3116    8.5330 -999.0000 -999.0000   85.9000 -999.0000 -999.0000 
1099.8250   12.2500   12.7509   69.2462    8.0395 -999.0000 -999.0000   86.1000 -999.0000 -999.0000 
1099.9250   12.2500   12.7509   98.0988    7.4571 -999.0000 -999.0000   87.7000 -999.0000 -999.0000 
1100.0250   12.2500   12.9963   63.4757    6.8774 -999.0000 -999.0000   89.2000 -999.0000 -999.0000 
1100.1250   12.2500   12.7509   46.1642    6.4066 -999.0000 -999.0000   88.9000 -999.0000 -999.0000 
1100.2250   12.2500   12.7509   65.3992    6.0899 -999.0000 -999.0000   86.5000 -999.0000 -999.0000 
1100.3250   12.2500   12.8736   51.9347    5.8664 -999.0000 -999.0000   76.9000 -999.0000 -999.0000 
1100.4250   12.2500   12.9963   57.7052    5.5579 -999.0000 -999.0000   77.8000 -999.0000 -999.0000 
1100.5250   12.2500   12.7509   89.4431    4.9610 -999.0000 -999.0000   92.5000 -999.0000 -999.0000 
1100.6250   12.2500   12.7509   65.3992    4.1071 -999.0000 -999.0000   98.3000 -999.0000 -999.0000 
1100.7250   12.2500   12.8736   96.1753    3.2577 -999.0000 -999.0000  133.3000 -999.0000 -999.0000 
1100.8250   12.2500   12.8736  121.1809    2.6181 -999.0000 -999.0000  133.6000 -999.0000 -999.0000 
1100.9250   12.2500   12.8736   88.4813    2.2188 -999.0000 -999.0000  128.3000 -999.0000 -999.0000 
1101.0250   12.2500   12.7509   76.9403    2.0014 -999.0000 -999.0000  126.8000 -999.0000 -999.0000 
1101.1250   12.2500   12.7509  103.8694    1.9039 -999.0000 -999.0000  127.2000 -999.0000 -999.0000 
1101.2250   12.2500   12.8736   76.9403    1.8819 -999.0000 -999.0000  128.2000 -999.0000 -999.0000 
1101.3250   12.2500   12.8736   75.0168    1.9011 -999.0000 -999.0000  126.5000 -999.0000 -999.0000 
1101.4250   12.2500   12.6282  112.5251    1.9370 -999.0000 -999.0000  118.3000 -999.0000 -999.0000 
1101.5250   12.2500   12.7509   89.4431    1.9703 -999.0000 -999.0000  119.1000 -999.0000 -999.0000 
1101.6250   12.2500   12.9963   66.3610    1.9885 -999.0000 -999.0000  131.7000 -999.0000 -999.0000 
1101.7250   12.2500   12.6282   89.4431    1.9908 -999.0000 -999.0000  124.4000 -999.0000 -999.0000 
1101.8250   12.2500   12.8736   57.7052    1.9847 -999.0000 -999.0000  120.5000 -999.0000 -999.0000 
1101.9250   12.2500   12.9963   84.6343    1.9796 -999.0000 -999.0000  122.8000 -999.0000 -999.0000 
1102.0250   12.2500   12.7509  111.5634    1.9772 -999.0000 -999.0000  123.0000 -999.0000 -999.0000 
1102.1250   12.2500   12.7509   73.0933    1.9727 -999.0000 -999.0000  122.2000 -999.0000 -999.0000 
1102.2250   12.2500   12.6282   88.4813    1.9590 -999.0000 -999.0000  122.3000 -999.0000 -999.0000 
1102.3250   12.2500   12.7509  123.1044    1.9319 -999.0000 -999.0000  122.6000 -999.0000 -999.0000 
1102.4250   12.2500   12.6282   95.2136    1.8974 -999.0000 -999.0000  122.6000 -999.0000 -999.0000 
1102.5250   12.2500   12.9963   95.2136    1.8651 -999.0000 -999.0000  123.0000 -999.0000 -999.0000 
1102.6250   12.2500   12.6282  100.9841    1.8411 -999.0000 -999.0000  122.8000 -999.0000 -999.0000 
1102.7250   12.2500   12.6282   46.1642    1.8311 -999.0000 -999.0000  122.7000 -999.0000 -999.0000 
1102.8250   12.2500   12.7509   96.1753    1.8350 -999.0000 -999.0000  122.6000 -999.0000 -999.0000 
1102.9250   12.2500   12.7509   92.3283    1.8456 -999.0000 -999.0000  122.4000 -999.0000 -999.0000 
1103.0250   12.2500   12.8736   46.1642    1.8562 -999.0000 -999.0000  123.0000 -999.0000 -999.0000 
1103.1250   12.2500   12.8736  115.4104    1.8622 -999.0000 -999.0000  122.8000 -999.0000 -999.0000 
1103.2250   12.2500   12.8736  103.8694    1.8620 -999.0000 -999.0000  122.8000 -999.0000 -999.0000 
1103.3250   12.2500   12.7509   84.6343    1.8596 -999.0000 -999.0000  123.2000 -999.0000 -999.0000 
1103.4250   12.2500   12.7509  109.6399    1.8635 -999.0000 -999.0000  123.4000 -999.0000 -999.0000 
1103.5250   12.2500   12.8736   89.4431    1.8778 -999.0000 -999.0000  123.0000 -999.0000 -999.0000 
1103.6250   12.2500   12.6282   55.3970    1.9016 -999.0000 -999.0000  123.2000 -999.0000 -999.0000 
1103.7250   12.2500   12.6282   92.3283    1.9302 -999.0000 -999.0000  123.4000 -999.0000 -999.0000 
1103.8250   12.2500   12.8736   76.9403    1.9522 -999.0000 -999.0000  123.1000 -999.0000 -999.0000 
1103.9250   12.2500   12.8736   96.1753    1.9615 -999.0000 -999.0000  122.4000 -999.0000 -999.0000 
1104.0250   12.2500   12.6282   92.3283    1.9595 -999.0000 -999.0000  123.2000 -999.0000 -999.0000 
1104.1250   12.2500   12.8736   69.2462    1.9546 -999.0000 -999.0000  122.7000 -999.0000 -999.0000 
1104.2250   12.2500   12.8736   61.5522    1.9566 -999.0000 -999.0000  122.7000 -999.0000 -999.0000 
1104.3250   12.2500   12.7509  100.0223    1.9685 -999.0000 -999.0000  122.1000 -999.0000 -999.0000 
1104.4250   12.2500   12.9963   80.7873    1.9830 -999.0000 -999.0000  121.6000 -999.0000 -999.0000 
1104.5250   12.2500   12.6282   60.5905    1.9855 -999.0000 -999.0000  120.1000 -999.0000 -999.0000 
1104.6250   12.2500   12.7509   75.0168    1.9637 -999.0000 -999.0000  119.0000 -999.0000 -999.0000 
1104.7250   12.2500   12.7509   69.2462    1.9182 -999.0000 -999.0000  119.3000 -999.0000 -999.0000 
1104.8250   12.2500   12.8736   95.2136    1.8614 -999.0000 -999.0000  117.3000 -999.0000 -999.0000 
1104.9250   12.2500   12.7509   96.1753    1.8132 -999.0000 -999.0000  119.4000 -999.0000 -999.0000 
1105.0250   12.2500   12.8736   69.2462    1.7893 -999.0000 -999.0000  119.3000 -999.0000 -999.0000 
1105.1250   12.2500   12.7509   84.6343    1.7954 -999.0000 -999.0000  116.3000 -999.0000 -999.0000 
1105.2250   12.2500   12.8736  111.5634    1.8333 -999.0000 -999.0000  115.2000 -999.0000 -999.0000 
1105.3250   12.2500   12.7509  134.6455    1.9104 -999.0000 -999.0000  112.3000 -999.0000 -999.0000 
1105.4250   12.2500   12.8736   92.3283    2.0459 -999.0000 -999.0000  109.5000 -999.0000 -999.0000 
1105.5250   12.2500   12.8736   69.2462    2.2744 -999.0000 -999.0000   98.1000 -999.0000 -999.0000 
1105.6250   12.2500   12.8736   69.2462    2.6396 -999.0000 -999.0000   90.2000 -999.0000 -999.0000 
1105.7250   12.2500   12.9963   98.0988    3.1504 -999.0000 -999.0000   89.0000 -999.0000 -999.0000 
1105.8250   12.2500   12.8736   83.6725    3.6958 -999.0000 -999.0000   86.2000 -999.0000 -999.0000 
