~VERSION INFORMATION
 VERS.                 2.0:   CWLS LOG ASCII STANDARD - VERSION 2.0
 WRAP.                  NO:   SINGLE LINE PER DEPTH STEP
 CREA.                 06/02/2020 16:06:00
#CREATED USING IP VERSION 4.5.2019.2902 BY RMOTA ON 06/02/2020 16:06:00
~WELL INFORMATION
#MNEM.UNIT       DATA                          DESCRIPTION MNEMONIC
#---------      ---------------------------   --------------------------
 STRT    .M         9.9250                    : START DEPTH
 STOP    .M         3087.0250                 : STOP DEPTH
 STEP    .M         0.1000                    : STEP VALUE
 NULL    .      -999.0000                     : NULL VALUE
 DATE    .      06/02/2020                    : LAS file Creation Date
 WELL   .      7-MP-22-BA       : Well Name
 COMP   .      PETROBRAS        : Company
 FLD    .      MASSAPE          : Field
 STATE  .      BAHIA            : State
 API    .      20240020649      : API Number
 UWI    .                       : Unique Well Identifier (UWI)
 LOC    .      SAD-69, MC=39G   : Location
 PDAT   .      NM               : Permanent Datum
 EPDAT  .      0                : Elevation of Permanent Datum
 LGMEA  .      MR               : Log Measured from
 DRMEA  .      MR               : Drill Measured From
 APDAT  .      66.39            : Elevation Above Permanent Datum
 KB     .      66.69            : KB Elevation
 DF     .      66.39            : DF Elevation
 GL     .      56.99            : GL Elevation
 RWS    .      -999             : Def_Rw
 WST    .      -999             : Def_Rwt
 PROV   .                       : Province
 SRVC   .                       : Contractor
 GDAT   .      WGS 84           : Geodatum
 LONG   .      -38.4321144443088: Longitude
 LATI   .      0                : Latitude
 COORDIN.                       : Grid System
 XCOORD .                       : X or East-West Coordinate
 YCOORD .                       : Y or North-South Coordinate
~CURVE INFORMATION
#MNEM              UNIT       API CODE   Curve Type Comments
#----------  --------------- ----------  ---------- -----------
 DEPTH      .M                         : Depth       
 BS         .in                        : BitSize     
 CALI       .in                        : Caliper     
 GR         .gAPI                      : GammaRay    
 HDRS       .ohm.m                     : DeepRes     
 RHOB       .g/cm3                     : Density     Loaded from DLIS: 7-mp-22-ba_raw-3.dlis
 NPHI       .m³/m³                     : Neutron     Loaded from DLIS: 7-mp-22-ba_raw-3.dlis
 DT         .uS/ft                     : Sonic       
 DRDN       .                          :             
 Lith_new   .                          :             
~A  DEPTH     BS       CALI       GR       HDRS      RHOB      NPHI       DT       DRDN    Lith_new 
# ...
2897.9250    8.5000    8.6945   75.6435   15.3004    2.5262    0.1221   70.8214   -0.4068   25.0000 
2898.0250    8.5000    8.6863   73.9456   15.6355    2.5198    0.1213   71.1071   -0.5618   25.0000 
2898.1250    8.5000    8.6945   70.4884   16.1961    2.5089    0.1165   71.3929   -0.9400   25.0000 
2898.2250    8.5000    8.7027   65.7252   16.8355    2.4904    0.1092   71.6633   -1.5522   49.0000 
2898.3250    8.5000    8.6863   60.5010   17.3331    2.4694    0.1023   71.8520   -2.2016   49.0000 
2898.4250    8.5000    8.7109   55.5457   17.5434    2.4511    0.0981   71.8929   -2.7070   49.0000 
2898.5250    8.5000    8.6863   52.2114   17.5127    2.4425    0.0965   71.7194   -2.9344   49.0000 
2898.6250    8.5000    8.7109   51.9963   17.3920    2.4407    0.0973   71.3214   -2.9441   49.0000 
2898.7250    8.5000    8.6945   54.9464   17.3553    2.4501    0.0993   70.6684   -2.6872   49.0000 
2898.8250    8.5000    8.6945   58.8799   17.5124    2.4650    0.1020   69.8980   -2.3000   49.0000 
2898.9250    8.5000    8.7027   63.4895   18.0027    2.4933    0.1040   69.1633   -1.6660   49.0000 
2899.0250    8.5000    8.6945   65.4563   18.9311    2.5204    0.1053   68.6275   -1.0817   49.0000 
2899.1250    8.5000    8.7191   65.2873   20.3270    2.5397    0.1057   68.3827   -0.6812   25.0000 
2899.2250    8.5000    8.7109   64.8724   22.0441    2.5361    0.1048   68.2653   -0.7832   25.0000 
2899.3250    8.5000    8.7027   63.5203   23.7206    2.5216    0.1018   68.1990   -1.1759   49.0000 
2899.4250    8.5000    8.6863   62.0298   25.0513    2.5008    0.0974   68.1275   -1.7396   49.0000 
2899.5250    8.5000    8.6945   59.5099   25.9689    2.4859    0.0917   67.9541   -2.2242   49.0000 
2899.6250    8.5000    8.6945   55.8837   26.6264    2.4778    0.0858   67.8367   -2.5833   49.0000 
2899.7250    8.5000    8.7272   52.5456   27.1833    2.4751    0.0793   67.8469   -2.8548   49.0000 
2899.8250    8.5000    8.7927   50.1025   27.5579    2.4752    0.0741   68.0000   -3.0267   49.0000 
2899.9250    8.5000    8.7354   48.5199   27.5690    2.4686    0.0719   68.5000   -3.2299   49.0000 
2900.0250    8.5000    8.7600   48.8617   26.9518    2.4589    0.0726   69.2398   -3.4019   49.0000 
2900.1250    8.5000    8.7354   49.2612   25.7371    2.4455    0.0754   70.1786   -3.5762   49.0000 
2900.2250    8.5000    8.7436   49.9988   24.1444    2.4355    0.0789   71.1837   -3.6614   49.0000 
2900.3250    8.5000    8.7272   52.0731   22.5355    2.4282    0.0838   71.9745   -3.6443   49.0000 
2900.4250    8.5000    8.7109   53.1256   21.1544    2.4211    0.0892   72.5561   -3.6056   49.0000 
2900.5250    8.5000    8.6700   54.6737   20.0895    2.4177    0.0938   72.8520   -3.5196   49.0000 
2900.6250    8.5000    8.6863   57.4855   19.3024    2.4187    0.0979   72.9388   -3.3623   49.0000 
2900.7250    8.5000    8.7109   60.3204   18.7742    2.4306    0.1004   72.7908   -3.0398   49.0000 
2900.8250    8.5000    8.7109   62.9210   18.5460    2.4466    0.1038   72.5153   -2.6084   49.0000 
2900.9250    8.5000    8.7109   64.4499   18.6864    2.4567    0.1061   72.1327   -2.3273   49.0000 
2901.0250    8.5000    8.7109   63.1284   19.1341    2.4544    0.1090   71.8571   -2.2795   49.0000 
2901.1250    8.5000    8.6945   59.9670   19.7787    2.4396    0.1094   71.7653   -2.5625   49.0000 
2901.2250    8.5000    8.6863   57.2627   20.4592    2.4278    0.1070   71.7653   -2.8766   49.0000 
2901.3250    8.5000    8.7027   54.7735   21.1166    2.4188    0.1014   71.9235   -3.2428   49.0000 
2901.4250    8.5000    8.7027   53.1525   21.6507    2.4156    0.0952   72.1633   -3.5159   49.0000 
2901.5250    8.5000    8.7027   51.9079   22.0266    2.4116    0.0900   72.5510   -3.7697   49.0000 
2901.6250    8.5000    8.7109   50.6019   22.2130    2.4106    0.0869   73.0816   -3.8924   49.0000 
2901.7250    8.5000    8.7763   49.6338   22.2779    2.4138    0.0850   73.6122   -3.8906   49.0000 
2901.8250    8.5000    8.7681   49.5301   22.2505    2.4200    0.0841   73.9286   -3.7989   49.0000 
2901.9250    8.5000    8.7600   49.7068   22.1797    2.4261    0.0840   73.9694   -3.6770   49.0000 
2902.0250    8.5000    8.7518   49.2766   22.0962    2.4283    0.0851   73.5765   -3.5996   49.0000 
2902.1250    8.5000    8.7436   48.2625   22.0598    2.4288    0.0873   72.9541   -3.5156   49.0000 
2902.2250    8.5000    8.7436   46.5877   22.0603    2.4304    0.0890   72.3827   -3.4257   49.0000 
2902.3250    8.5000    8.7763   45.6811   21.9407    2.4351    0.0894   72.1020   -3.3170   49.0000 
2902.4250    8.5000    8.7272   45.7656   21.4381    2.4414    0.0878   72.3367   -3.2436   49.0000 
2902.5250    8.5000    8.7681   47.4558   20.4570    2.4468    0.0865   72.8469   -3.1805   49.0000 
2902.6250    8.5000    8.7272   49.8720   19.1934    2.4479    0.0865   73.5102   -3.1591   49.0000 
2902.7250    8.5000    8.6782   52.4111   17.9836    2.4456    0.0891   74.1531   -3.1181   49.0000 
2902.8250    8.5000    8.6618   54.6852   17.0122    2.4459    0.0940   74.7449   -2.9492   49.0000 
2902.9250    8.5000    8.6209   56.2832   16.3395    2.4512    0.0999   75.2908   -2.6472   49.0000 
2903.0250    8.5000    8.6536   58.5265   15.9140    2.4570    0.1058   75.4796   -2.3335   49.0000 
2903.1250    8.5000    8.6782   61.4229   15.7061    2.4520    0.1090   75.2347   -2.3280   49.0000 
2903.2250    8.5000    8.6700   65.9249   15.6857    2.4452    0.1104   74.5102   -2.4153   49.0000 
2903.3250    8.5000    8.7191   71.9481   15.8295    2.4442    0.1107   73.5306   -2.4271   49.0000 
2903.4250    8.5000    8.6536   77.8561   16.0513    2.4653    0.1119   72.4694   -1.9631   49.0000 
2903.5250    8.5000    8.6454   83.1264   16.2664    2.5014    0.1142   71.3878   -1.1673   49.0000 
2903.6250    8.5000    8.6782   86.9140   16.4294    2.5421    0.1160   70.2908   -0.2922   54.0000 
2903.7250    8.5000    8.6782   89.2418   16.5157    2.5703    0.1173   69.2959    0.3164   57.0000 
2903.8250    8.5000    8.7191   90.7246   16.5412    2.5783    0.1174   68.6071    0.4780   57.0000 
2903.9250    8.5000    8.7354   91.5312   16.4996    2.5694    0.1172   68.2602    0.2938   54.0000 
2904.0250    8.5000    8.6863   90.9550   16.4873    2.5548    0.1157   68.2296   -0.0483   54.0000 
2904.1250    8.5000    8.6618   89.5069   16.6068    2.5443    0.1138   68.3520   -0.3195   25.0000 
2904.2250    8.5000    8.6782   87.6553   16.9772    2.5469    0.1111   68.3929   -0.3599   25.0000 
2904.3250    8.5000    8.6700   84.7052   17.5581    2.5529    0.1087   68.3725   -0.3199   25.0000 
2904.4250    8.5000    8.6700   82.6232   18.2093    2.5504    0.1068   68.1786   -0.4340   25.0000 
2904.5250    8.5000    8.6618   79.9957   18.7781    2.5329    0.1057   68.0000   -0.8197   25.0000 
2904.6250    8.5000    8.6618   76.9918   19.2352    2.5163    0.1054   67.8520   -1.1587   49.0000 
2904.7250    8.5000    8.6700   75.5590   19.6455    2.5196    0.1056   67.9235   -1.0894   49.0000 
2904.8250    8.5000    8.6700   73.8534   19.9245    2.5345    0.1068   68.1888   -0.7483   25.0000 
2904.9250    8.5000    8.6863   73.1197   19.9245    2.5423    0.1089   68.6173   -0.5221   25.0000 
2905.0250    8.5000    8.6945   72.2439   19.5896    2.5285    0.1104   69.2245   -0.7504   25.0000 
2905.1250    8.5000    8.6945   69.9161   19.1212    2.5083    0.1111   69.9847   -1.1326   49.0000 
2905.2250    8.5000    8.6536   67.3501   18.7362    2.4932    0.1099   70.8061   -1.4748   49.0000 
2905.3250    8.5000    8.6454   64.1771   18.6005    2.4861    0.1096   71.5714   -1.6230   49.0000 
2905.4250    8.5000    8.6454   61.4114   18.8469    2.4806    0.1085   71.9082   -1.7736   49.0000 
2905.5250    8.5000    8.6454   59.0029   19.5603    2.4725    0.1077   71.8112   -1.9618   49.0000 
2905.6250    8.5000    8.6782   56.3139   20.6913    2.4689    0.1049   71.3980   -2.1253   49.0000 
2905.7250    8.5000    8.6945   53.6634   22.0363    2.4646    0.1017   70.9949   -2.3159   49.0000 
2905.8250    8.5000    8.6782   51.4124   23.3366    2.4627    0.0963   70.8775   -2.5358   49.0000 
