~VERSION INFORMATION
 VERS.                 2.0:   CWLS LOG ASCII STANDARD - VERSION 2.0
 WRAP.                  NO:   SINGLE LINE PER DEPTH STEP
 CREA.                 06/02/2020 16:06:00
#CREATED USING IP VERSION 4.5.2019.2902 BY RMOTA ON 06/02/2020 16:06:00
~WELL INFORMATION
#MNEM.UNIT       DATA                          DESCRIPTION MNEMONIC
#---------      ---------------------------   --------------------------
 STRT    .M         9.9250                    : START DEPTH
 STOP    .M         3087.0250                 : STOP DEPTH
 STEP    .M         0.1000                    : STEP VALUE
 NULL    .      -999.0000                     : NULL VALUE
 DATE    .      06/02/2020                    : LAS file Creation Date
 WELL   .      7-MP-22-BA       : Well Name
 COMP   .      PETROBRAS        : Company
 FLD    .      MASSAPE          : Field
 STATE  .      BAHIA            : State
 API    .      20240020649      : API Number
 UWI    .                       : Unique Well Identifier (UWI)
 LOC    .      SAD-69, MC=39G   : Location
 PDAT   .      NM               : Permanent Datum
 EPDAT  .      0                : Elevation of Permanent Datum
 LGMEA  .      MR               : Log Measured from
 DRMEA  .      MR               : Drill Measured From
 APDAT  .      66.39            : Elevation Above Permanent Datum
 KB     .      66.69            : KB Elevation
 DF     .      66.39            : DF Elevation
 GL     .      56.99            : GL Elevation
 RWS    .      -999             : Def_Rw
 WST    .      -999             : Def_Rwt
 PROV   .                       : Province
 SRVC   .                       : Contractor
 GDAT   .      WGS 84           : Geodatum
 LONG   .      -38.4321144443088: Longitude
 LATI   .      0                : Latitude
 COORDIN.                       : Grid System
 XCOORD .                       : X or East-West Coordinate
 YCOORD .                       : Y or North-South Coordinate
~CURVE INFORMATION
#MNEM              UNIT       API CODE   Curve Type Comments
#----------  --------------- ----------  ---------- -----------
 DEPTH      .M                         : Depth       
 BS         .in                        : BitSize     
 CALI       .in                        : Caliper     
 GR         .gAPI                      : GammaRay    
 HDRS       .ohm.m                     : DeepRes     
 RHOB       .g/cm3                     : Density     Loaded from DLIS: 7-mp-22-ba_raw-3.dlis
 NPHI       .m³/m³                     : Neutron     Loaded from DLIS: 7-mp-22-ba_raw-3.dlis
 DT         .uS/ft                     : Sonic       
 DRDN       .                          :             
 Lith_new   .                          :             
~A  DEPTH     BS       CALI       GR       HDRS      RHOB      NPHI       DT       DRDN    Lith_new 
# ...
2001.9250    8.5000    8.8008   92.6414    2.0908    2.5283    0.2659   92.8393    4.4279   57.0000 
2002.0250    8.5000    8.8172   91.3584    2.0401    2.5283    0.2679   94.9490    4.4972   57.0000 
2002.1250    8.5000    8.8008   92.0345    2.0097    2.5269    0.2714   96.8515    4.5825   57.0000 
2002.2250    8.5000    8.8090   95.6069    2.0044    2.5280    0.2719   97.7270    4.6215   57.0000 
2002.3250    8.5000    8.8008   97.2356    2.0193    2.5235    0.2675   97.4520    4.3889   57.0000 
2002.4250    8.5000    8.8008   98.6953    2.0432    2.5227    0.2619   96.3786    4.1837   57.0000 
2002.5250    8.5000    8.8335  100.0052    2.0657    2.5248    0.2590   95.5036    4.1287   57.0000 
2002.6250    8.5000    8.8254   98.1268    2.0857    2.5317    0.2571   94.8587    4.2030   57.0000 
2002.7250    8.5000    8.8172   95.6837    2.1141    2.5294    0.2496   93.9536    3.9074   57.0000 
2002.8250    8.5000    8.8090   91.9461    2.1688    2.5268    0.2354   92.4541    3.3815   57.0000 
2002.9250    8.5000    8.7926   88.5427    2.2700    2.5281    0.2174   90.1378    2.8077   57.0000 
2003.0250    8.5000    8.8008   87.7283    2.4389    2.5467    0.2048   87.6474    2.7612   57.0000 
2003.1250    8.5000    8.7926   89.9870    2.6927    2.5660    0.1978   85.5760    2.9116   57.0000 
2003.2250    8.5000    8.7845   95.0960    3.0482    2.5784    0.1960   84.4638    3.0997   57.0000 
2003.3250    8.5000    8.8008   99.1140    3.4693    2.5745    0.1975   84.8163    3.0723   57.0000 
2003.4250    8.5000    8.7926  101.0962    3.7937    2.5618    0.2065   86.0607    3.1169   57.0000 
2003.5250    8.5000    8.8254  101.6800    3.7873    2.5513    0.2213   87.7342    3.4016   57.0000 
2003.6250    8.5000    8.8417  100.3202    3.4492    2.5471    0.2388   88.6485    3.9028   57.0000 
2003.7250    8.5000    8.8254   98.7530    3.0355    2.5512    0.2512   88.8816    4.3960   57.0000 
2003.8250    8.5000    8.8335   97.4315    2.7320    2.5588    0.2575   88.8224    4.7610   57.0000 
2003.9250    8.5000    8.8008   94.6120    2.5804    2.5679    0.2540   88.8082    4.8232   57.0000 
2004.0250    8.5000    8.7599   90.6823    2.5744    2.5713    0.2428   88.9883    4.5180   57.0000 
2004.1250    8.5000    8.7845   87.1022    2.7138    2.5724    0.2256   88.7898    3.9684   57.0000 
2004.2250    8.5000    8.7763   83.3377    3.0003    2.5746    0.2077   88.2332    3.4160   57.0000 
2004.3250    8.5000    8.8090   80.2493    3.3879    2.5826    0.1932   86.9321    3.0928   57.0000 
2004.4250    8.5000    8.8090   78.6205    3.7620    2.5877    0.1812   84.8464    2.7925   57.0000 
2004.5250    8.5000    8.8090   76.4694    4.0153    2.5911    0.1703   82.2352    2.4981   57.0000 
2004.6250    8.5000    8.8335   74.7638    4.1632    2.5933    0.1591   79.6087    2.1696   57.0000 
2004.7250    8.5000    8.8581   74.5103    4.3314    2.5960    0.1514   77.9311    1.9676   57.0000 
2004.8250    8.5000    8.8581   74.3144    4.6390    2.5944    0.1517   77.3617    1.9443   57.0000 
2004.9250    8.5000    8.8254   75.7203    5.0883    2.5822    0.1594   77.5327    1.9560   57.0000 
2005.0250    8.5000    8.7926   78.4093    5.5000    2.5647    0.1678   77.9918    1.8886   57.0000 
2005.1250    8.5000    8.8090   79.9535    5.5882    2.5468    0.1731   78.5245    1.7046   57.0000 
2005.2250    8.5000    8.8090   81.0060    5.2436    2.5457    0.1746   79.2225    1.7353   57.0000 
2005.3250    8.5000    8.8172   80.4682    4.6791    2.5524    0.1761   80.0811    1.9168   57.0000 
2005.4250    8.5000    8.8581   77.5027    4.1676    2.5654    0.1731   80.7638    2.0765   57.0000 
2005.5250    8.5000    8.8744   74.2760    3.8490    2.5728    0.1626   80.9230    1.8780   57.0000 
2005.6250    8.5000    8.8990   70.6498    3.7582    2.5815    0.1460   80.2862    1.4967   57.0000 
2005.7250    8.5000    8.8990   67.9993    3.9074    2.5871    0.1348   78.9781    1.2345   57.0000 
2005.8250    8.5000    8.8744   68.0453    4.3421    2.5859    0.1360   77.0454    1.2527   57.0000 
2005.9250    8.5000    8.8663   71.3489    5.1267    2.5808    0.1468   74.9832    1.5113   57.0000 
2006.0250    8.5000    8.8744   77.8023    6.1925    2.5765    0.1580   73.5811    1.7961   57.0000 
2006.1250    8.5000    8.8499   84.8550    6.9895    2.5723    0.1665   73.3495    1.9982   57.0000 
2006.2250    8.5000    8.8663   91.6465    6.6970    2.5700    0.1760   74.6974    2.2664   57.0000 
2006.3250    8.5000    8.8417   95.5954    5.5226    2.5644    0.1887   77.0230    2.5798   57.0000 
2006.4250    8.5000    8.8581   97.0704    4.3793    2.5650    0.2026   79.3546    3.0541   57.0000 
2006.5250    8.5000    8.8744   97.4469    3.6476    2.5633    0.2131   80.8444    3.3688   57.0000 
2006.6250    8.5000    8.8744   96.6633    3.2753    2.5684    0.2195   81.3923    3.6844   57.0000 
2006.7250    8.5000    8.8826   96.4866    3.1143    2.5725    0.2218   81.5714    3.8443   57.0000 
2006.8250    8.5000    8.8663   96.3944    3.0457    2.5782    0.2249   81.8117    4.0622   57.0000 
2006.9250    8.5000    8.8581   98.1153    2.9914    2.5743    0.2277   82.3306    4.0765   57.0000 
2007.0250    8.5000    8.8499  100.6967    2.9112    2.5687    0.2320   82.9929    4.1069   57.0000 
2007.1250    8.5000    8.8581  100.9579    2.8099    2.5601    0.2346   83.6602    4.0213   57.0000 
2007.2250    8.5000    8.8663  101.2498    2.7187    2.5614    0.2375   84.3571    4.1446   57.0000 
2007.3250    8.5000    8.8826   99.3215    2.6695    2.5660    0.2390   84.9878    4.2851   57.0000 
2007.4250    8.5000    8.8990   95.3879    2.6787    2.5735    0.2382   85.1061    4.4097   57.0000 
2007.5250    8.5000    8.8826   94.4660    2.7431    2.5708    0.2349   84.4291    4.2480   57.0000 
2007.6250    8.5000    8.8990   92.9449    2.8401    2.5637    0.2298   83.0480    3.9328   57.0000 
2007.7250    8.5000    8.8499   92.0806    2.9429    2.5556    0.2250   81.5571    3.6114   57.0000 
2007.8250    8.5000    8.8254   92.9641    3.0327    2.5574    0.2189   80.7449    3.4426   57.0000 
2007.9250    8.5000    8.8254   92.4954    3.0934    2.5653    0.2151   80.9235    3.4747   57.0000 
2008.0250    8.5000    8.8090   93.1715    3.1101    2.5647    0.2137   81.9031    3.4181   57.0000 
2008.1250    8.5000    8.8417   94.1318    3.0767    2.5480    0.2165   83.1189    3.1785   57.0000 
2008.2250    8.5000    8.8499   95.4187    3.0128    2.5185    0.2184   84.0469    2.6506   57.0000 
2008.3250    8.5000    8.8744   96.9514    2.9583    2.5121    0.2190   84.6765    2.5416   57.0000 
2008.4250    8.5000    8.8744   98.2267    2.9388    2.5270    0.2191   85.0939    2.8431   57.0000 
2008.5250    8.5000    8.8990   98.4533    2.9382    2.5522    0.2219   85.5633    3.4426   57.0000 
2008.6250    8.5000    8.8990   97.3739    2.9095    2.5587    0.2270   86.2367    3.7415   57.0000 
2008.7250    8.5000    8.8990   95.2304    2.8176    2.5548    0.2321   87.0418    3.8316   57.0000 
2008.8250    8.5000    8.9072   91.8117    2.6889    2.5460    0.2344   87.9112    3.7346   57.0000 
2008.9250    8.5000    8.9153   89.9179    2.5917    2.5381    0.2345   88.8490    3.5779   57.0000 
2009.0250    8.5000    8.9235   89.0037    2.5645    2.5314    0.2327   89.7061    3.3860   57.0000 
2009.1250    8.5000    8.9235   90.2751    2.5978    2.5297    0.2314   91.4755    3.3082   57.0000 
2009.2250    8.5000    8.8990   92.8411    2.6567    2.5344    0.2327   94.4250    3.4437   57.0000 
2009.3250    8.5000    8.8826   95.1114    2.6995    2.5375    0.2356   97.4480    3.6055   57.0000 
2009.4250    8.5000    8.8826   98.2459    2.6957    2.5388    0.2406   99.7071    3.7957   57.0000 
2009.5250    8.5000    8.8990  100.6467    2.6376    2.5377    0.2415   99.4628    3.8034   57.0000 
2009.6250    8.5000    8.9399  102.2447    2.5487    2.5347    0.2425   98.1668    3.7787   57.0000 
2009.7250    8.5000    8.9317  103.1398    2.4691    2.5301    0.2419   96.9995    3.6644   57.0000 
2009.8250    8.5000    8.9399  101.2383    2.4187    2.5252    0.2447   96.4128    3.6585   57.0000 
