~VERSION INFORMATION
 VERS.                 2.0:   CWLS LOG ASCII STANDARD - VERSION 2.0
 WRAP.                  NO:   SINGLE LINE PER DEPTH STEP
 CREA.                 06/02/2020 16:06:00
#CREATED USING IP VERSION 4.5.2019.2902 BY RMOTA ON 06/02/2020 16:06:00
~WELL INFORMATION
#MNEM.UNIT       DATA                          DESCRIPTION MNEMONIC
#---------      ---------------------------   --------------------------
 STRT    .M         9.9250                    : START DEPTH
 STOP    .M         3087.0250                 : STOP DEPTH
 STEP    .M         0.1000                    : STEP VALUE
 NULL    .      -999.0000                     : NULL VALUE
 DATE    .      06/02/2020                    : LAS file Creation Date
 WELL   .      7-MP-22-BA       : Well Name
 COMP   .      PETROBRAS        : Company
 FLD    .      MASSAPE          : Field
 STATE  .      BAHIA            : State
 API    .      20240020649      : API Number
 UWI    .                       : Unique Well Identifier (UWI)
 LOC    .      SAD-69, MC=39G   : Location
 PDAT   .      NM               : Permanent Datum
 EPDAT  .      0                : Elevation of Permanent Datum
 LGMEA  .      MR               : Log Measured from
 DRMEA  .      MR               : Drill Measured From
 APDAT  .      66.39            : Elevation Above Permanent Datum
 KB     .      66.69            : KB Elevation
 DF     .      66.39            : DF Elevation
 GL     .      56.99            : GL Elevation
 RWS    .      -999             : Def_Rw
 WST    .      -999             : Def_Rwt
 PROV   .                       : Province
 SRVC   .                       : Contractor
 GDAT   .      WGS 84           : Geodatum
 LONG   .      -38.4321144443088: Longitude
 LATI   .      0                : Latitude
 COORDIN.                       : Grid System
 XCOORD .                       : X or East-West Coordinate
 YCOORD .                       : Y or North-South Coordinate
~CURVE INFORMATION
#MNEM              UNIT       API CODE   Curve Type Comments
#----------  --------------- ----------  ---------- -----------
 DEPTH      .M                         : Depth       
 BS         .in                        : BitSize     
 CALI       .in                        : Caliper     
 GR         .gAPI                      : GammaRay    
 HDRS       .ohm.m                     : DeepRes     
 RHOB       .g/cm3                     : Density     Loaded from DLIS: 7-mp-22-ba_raw-3.dlis
 NPHI       .m³/m³                     : Neutron     Loaded from DLIS: 7-mp-22-ba_raw-3.dlis
 DT         .uS/ft                     : Sonic       
 DRDN       .                          :             
 Lith_new   .                          :             
~A  DEPTH     BS       CALI       GR       HDRS      RHOB      NPHI       DT       DRDN    Lith_new 
# ...
1825.9250    8.5000    9.5615   82.3313    1.9539    2.5194    0.2768   97.0173    4.6159   57.0000 
1826.0250    8.5000    9.5370   83.7065    2.0538    2.5196    0.2778   96.5990    4.6502   57.0000 
1826.1250    8.5000    9.5452   87.9665    2.1360    2.5228    0.2783   96.1949    4.7318   57.0000 
1826.2250    8.5000    9.5615   92.9064    2.1738    2.5295    0.2765   95.7189    4.8073   57.0000 
1826.3250    8.5000    9.5779   97.0666    2.1635    2.5286    0.2791   95.3224    4.8743   57.0000 
1826.4250    8.5000    9.5943   98.9757    2.1215    2.5242    0.2822   95.0189    4.8909   57.0000 
1826.5250    8.5000    9.5779   97.4546    2.0712    2.5193    0.2866   94.8781    4.9384   57.0000 
1826.6250    8.5000    9.5943   94.6581    2.0305    2.5181    0.2899   94.8801    5.0266   57.0000 
1826.7250    8.5000    9.6433   90.7476    2.0105    2.5161    0.2907   95.4102    5.0104   57.0000 
1826.8250    8.5000    9.6352   87.4710    2.0113    2.5183    0.2916   96.8867    5.0868   57.0000 
1826.9250    8.5000    9.6679   85.4619    2.0240    2.5208    0.2893   98.5010    5.0587   57.0000 
1827.0250    8.5000    9.6188   84.1636    2.0342    2.5260    0.2878   99.9500    5.1136   57.0000 
1827.1250    8.5000    9.6024   85.3582    2.0285    2.5223    0.2839   99.6413    4.9083   57.0000 
1827.2250    8.5000    9.5943   86.0919    2.0055    2.5180    0.2803   98.4811    4.7038   57.0000 
1827.3250    8.5000    9.5697   86.8256    1.9766    2.5124    0.2780   97.1954    4.5142   57.0000 
1827.4250    8.5000    9.5697   87.6784    1.9514    2.5145    0.2815   96.2577    4.6710   57.0000 
1827.5250    8.5000    9.5861   86.7949    1.9321    2.5179    0.2880   96.1525    4.9598   57.0000 
1827.6250    8.5000    9.6106   86.6412    1.9176    2.5208    0.2935   96.2464    5.2002   57.0000 
1827.7250    8.5000    9.6106   86.7872    1.9067    2.5177    0.2932   96.4617    5.1286   57.0000 
1827.8250    8.5000    9.5861   86.4108    1.9039    2.5118    0.2901   96.6755    4.9053   57.0000 
1827.9250    8.5000    9.6024   87.1406    1.9103    2.5037    0.2884   96.8745    4.6880   57.0000 
1828.0250    8.5000    9.6106   88.1624    1.9212    2.4972    0.2901   97.1459    4.6150   57.0000 
1828.1250    8.5000    9.6188   89.4646    1.9321    2.4906    0.2966   97.8163    4.6993   57.0000 
1828.2250    8.5000    9.6597   91.3315    1.9455    2.4837    0.3012   98.8704    4.7158   57.0000 
1828.3250    8.5000    9.6106   91.3891    1.9696    2.4792    0.3039  100.0077    4.7130   57.0000 
1828.4250    8.5000    9.5861   90.4096    2.0149    2.4771    0.3017  100.8362    4.6001   57.0000 
1828.5250    8.5000    9.5697   89.0536    2.0838    2.4816    0.3004  101.0791    4.6465   57.0000 
1828.6250    8.5000    9.5370   88.0203    2.1654    2.4854    0.2983  101.0821    4.6518   57.0000 
1828.7250    8.5000    9.5370   89.0459    2.2420    2.4904    0.2961  102.6209    4.6797   57.0000 
1828.8250    8.5000    9.5452   91.7156    2.2931    2.4924    0.2940  106.2495    4.6496   57.0000 
1828.9250    8.5000    9.5452   94.8847    2.3045    2.4927    0.2917  110.7485    4.5770   57.0000 
1829.0250    8.5000    9.5370   97.7158    2.2863    2.4913    0.2901  113.8051    4.4962   57.0000 
1829.1250    8.5000    9.5206   99.4790    2.2587    2.4888    0.2891  112.8429    4.4105   57.0000 
1829.2250    8.5000    9.5125   99.2139    2.2375    2.4907    0.2924  108.8245    4.5598   57.0000 
1829.3250    8.5000    9.5206   98.6723    2.2255    2.4956    0.2973  104.8122    4.8204   57.0000 
1829.4250    8.5000    9.5043   97.3624    2.2163    2.5005    0.2988  102.4474    4.9705   57.0000 
1829.5250    8.5000    9.4879   97.0359    2.2047    2.4999    0.2948  101.9821    4.8259   57.0000 
1829.6250    8.5000    9.5206   97.5852    2.1976    2.4943    0.2855  101.9607    4.4001   57.0000 
1829.7250    8.5000    9.5043   96.8400    2.2127    2.4903    0.2742  101.4388    3.9452   57.0000 
1829.8250    8.5000    9.5534   95.7145    2.2752    2.4907    0.2613  100.0852    3.5241   57.0000 
1829.9250    8.5000    9.6024   92.1766    2.4051    2.4959    0.2502   97.8434    3.2568   57.0000 
1830.0250    8.5000    9.6188   88.3737    2.5971    2.5115    0.2448   95.0607    3.3875   57.0000 
1830.1250    8.5000    9.7088   86.0205    2.8015    2.5292    0.2447   92.4531    3.7404   57.0000 
1830.2250    8.5000    9.6924   85.1692    2.9276    2.5456    0.2512   90.5582    4.2842   57.0000 
1830.3250    8.5000    9.7251   86.0889    2.8813    2.5453    0.2565   89.5515    4.4554   57.0000 
1830.4250    8.5000    9.7333   86.7934    2.6594    2.5366    0.2618   89.5923    4.4578   57.0000 
1830.5250    8.5000    9.6924   87.0223    2.3806    2.5285    0.2624   90.5776    4.3166   57.0000 
1830.6250    8.5000    9.7251   86.2218    2.1537    2.5258    0.2630   92.1408    4.2833   57.0000 
1830.7250    8.5000    9.7170   85.0256    1.9986    2.5263    0.2649   93.7276    4.3568   57.0000 
1830.8250    8.5000    9.7579   84.5400    1.8953    2.5221    0.2693   94.7015    4.4187   57.0000 
1830.9250    8.5000    9.7742   84.1405    1.8248    2.5152    0.2759   95.1352    4.4997   57.0000 
1831.0250    8.5000    9.8233   84.2404    1.7797    2.5104    0.2806   95.3622    4.5592   57.0000 
1831.1250    8.5000    9.8478   84.4939    1.7612    2.5084    0.2831   95.4219    4.6054   57.0000 
1831.2250    8.5000    9.8315   85.3352    1.7743    2.5077    0.2816   95.2653    4.5394   57.0000 
1831.3250    8.5000    9.8560   87.3749    1.8225    2.5064    0.2799   94.6230    4.4597   57.0000 
1831.4250    8.5000    9.8397   91.2362    1.9090    2.5066    0.2786   93.8847    4.4206   57.0000 
1831.5250    8.5000    9.8478   96.3537    2.0295    2.5115    0.2800   93.3781    4.5644   57.0000 
1831.6250    8.5000    9.8724  100.0882    2.1581    2.5140    0.2819   93.3209    4.6761   57.0000 
1831.7250    8.5000    9.8560  101.5295    2.2503    2.5139    0.2876   93.8087    4.8669   57.0000 
1831.8250    8.5000    9.8642  100.3725    2.2749    2.5130    0.2920   94.5474    4.9932   57.0000 
1831.9250    8.5000    9.8233   97.2256    2.2446    2.5168    0.2981   95.3801    5.2735   57.0000 
1832.0250    8.5000    9.8478   94.9854    2.2009    2.5201    0.2991   96.0546    5.3719   57.0000 
1832.1250    8.5000    9.8315   94.8194    2.1795    2.5200    0.3008   96.4607    5.4270   57.0000 
1832.2250    8.5000    9.8478   95.3764    2.1911    2.5178    0.2947   96.4474    5.1778   57.0000 
1832.3250    8.5000    9.8397   97.4892    2.2201    2.5198    0.2903   96.1291    5.0727   57.0000 
1832.4250    8.5000    9.8233   98.9258    2.2447    2.5202    0.2863   95.6122    4.9472   57.0000 
1832.5250    8.5000    9.8806   97.8810    2.2585    2.5220    0.2915   95.2459    5.1567   57.0000 
1832.6250    8.5000    9.8151   96.3598    2.2649    2.5254    0.2937   94.9949    5.2970   57.0000 
1832.7250    8.5000    9.7906   93.2829    2.2658    2.5343    0.2932   95.4495    5.4611   57.0000 
1832.8250    8.5000    9.7579   91.1586    2.2589    2.5378    0.2862   96.5275    5.2963   57.0000 
1832.9250    8.5000    9.7333   92.2457    2.2407    2.5336    0.2809   97.4429    5.0357   57.0000 
1833.0250    8.5000    9.7742   93.7285    2.2168    2.5276    0.2775   97.9975    4.8022   57.0000 
1833.1250    8.5000    9.7742   96.1639    2.1965    2.5225    0.2796   96.7577    4.7697   57.0000 
1833.2250    8.5000    9.7824   97.4623    2.1843    2.5195    0.2847   95.1786    4.8807   57.0000 
1833.3250    8.5000    9.8069   96.5480    2.1784    2.5181    0.2932   93.7102    5.1351   57.0000 
1833.4250    8.5000    9.7497   96.0256    2.1717    2.5235    0.2986   93.0750    5.4216   57.0000 
1833.5250    8.5000    9.7170   94.5237    2.1575    2.5262    0.3007   93.5474    5.5469   57.0000 
1833.6250    8.5000    9.7006   93.3290    2.1351    2.5178    0.2997   94.4077    5.3453   57.0000 
1833.7250    8.5000    9.6515   92.4877    2.1107    2.5050    0.2985   95.5087    5.0515   57.0000 
1833.8250    8.5000    9.6352   91.1817    2.0925    2.5025    0.3003   96.6020    5.0584   57.0000 
